state,city,population,lat,lng,median_income,poverty_rate,percent_completed_hs,share_white,share_black,share_native_american,share_asian,share_hispanic
AK,Anchor Point,2057.0,59.7703,-151.7052,51591.0,10.1,93.8,90.2,0.3,3.8,0.9,2.2
AK,Anchorage,253421.0,61.1508,-149.1091,78326.0,8.2,93.0,66.0,5.6,7.9,8.1,7.6
AK,Barrow,4178.0,,,76902.0,11.7,84.6,16.9,1.0,61.2,9.1,3.1
AK,Big Lake,3136.0,61.526,-149.9721,70988.0,9.6,90.4,86.1,0.2,7.0,0.5,3.1
AK,Copper Center,397.0,61.9845,-145.3544,39063.0,18.8,84.8,45.7,0.0,48.5,0.3,3.0
AK,Fairbanks,64732.0,64.8353,-147.6534,55229.0,13.1,91.2,66.1,9.0,10.0,3.6,9.0
AK,Houston,2347.0,61.6159,-149.8003,50438.0,14.8,90.2,82.2,0.4,6.7,0.6,3.3
AK,Juneau,25180.0,58.4546,-134.1739,85746.0,6.6,94.8,69.7,0.9,11.8,6.1,5.1
AK,Kasilof,483.0,60.331,-151.2293,65893.0,5.7,100.0,87.8,0.2,4.2,0.5,2.4
AK,Kenai Peninsula,4178.0,,,,,,,,,,
AK,Nikolaevsk,279.0,59.8295,-151.5964,23125.0,21.8,84.8,92.5,0.0,3.5,0.3,4.4
AK,North Pole,2101.0,64.753,-147.36,70536.0,7.5,92.1,79.6,5.4,3.4,4.0,6.1
AK,Palmer,7209.0,61.5971,-149.1147,61797.0,11.5,91.3,79.1,1.8,9.2,1.1,4.6
AK,Pilot Station,620.0,61.9422,-162.8828,33125.0,39.3,72.6,1.8,0.0,98.1,0.0,0.0
AK,Seward,2831.0,60.1124,-149.3925,53750.0,8.4,93.9,68.5,3.1,16.7,2.4,3.6
AK,Spenard,4178.0,,,,,,,,,,
AK,Wasilla,10151.0,61.577,-149.4661,61541.0,11.7,91.8,83.4,1.4,5.2,2.1,4.3
AL,Abbeville,2567.0,31.5664,-85.2528,25615.0,29.1,69.1,54.4,41.4,0.1,1.0,3.1
AL,Albertville,37220.0,34.2634,-86.2107,32911.0,26.7,72.7,75.9,1.9,0.8,0.5,27.9
AL,Anniston,75169.0,33.6713,-85.8136,29681.0,31.7,79.8,44.7,51.5,0.3,0.8,2.7
AL,Arab,8244.0,34.3309,-86.4991,40292.0,16.7,87.6,96.6,0.1,0.6,0.7,1.7
AL,Ariton,739.0,31.5978,-85.7131,24286.0,37.6,71.3,78.3,19.2,0.0,0.1,6.0
AL,Ashville,2291.0,33.8331,-86.2698,40547.0,28.3,77.6,75.8,20.3,0.2,0.3,3.8
AL,Atmore,6368.0,31.0927,-87.4763,26775.0,24.7,73.7,40.0,55.6,1.8,0.3,1.8
AL,Baldwin County,4178.0,,,,,,,,,,
AL,Barnwell,4178.0,,,,,,,,,,
AL,Bay Minette,8532.0,30.893,-87.7912,31576.0,26.3,79.1,60.4,35.3,1.0,0.8,1.8
AL,Birmingham,744189.0,33.5277,-86.7987,31061.0,30.9,85.1,22.3,73.4,0.2,1.0,3.6
AL,Brooksville,4178.0,,,,,,,,,,
AL,Chunchula,158.0,30.9237,-88.2072,,0.0,91.2,45.7,51.9,0.0,0.0,0.5
AL,Citronelle,3900.0,31.0952,-88.2467,48125.0,16.9,82.5,70.7,20.2,4.9,0.5,2.6
AL,Clanton,5876.0,32.8439,-86.623,39823.0,16.9,76.8,74.9,19.1,0.3,0.6,6.0
AL,Clay,9599.0,33.698,-86.6066,68717.0,6.6,92.2,84.1,13.3,0.3,0.6,1.3
AL,Coden,4178.0,,,,,,,,,,
AL,Crenshaw County,4178.0,,,,,,,,,,
AL,Dadeville,3106.0,32.8326,-85.7675,29368.0,28.8,73.7,50.2,47.5,0.3,0.6,0.9
AL,Daphne,69065.0,30.6286,-87.8866,60737.0,11.2,95.8,84.1,11.8,0.4,1.5,2.9
AL,Deer Park,81.0,31.2198,-88.3226,,28.1,86.3,31.9,66.5,0.0,0.0,1.6
AL,Demopolis,5907.0,32.498,-87.8298,27656.0,31.0,89.1,47.3,50.1,0.1,0.5,2.4
AL,Eastaboga,4178.0,,,,,,,,,,
AL,Eclectic,1020.0,32.6387,-86.0386,41304.0,13.4,84.2,86.4,11.0,0.4,0.0,1.3
AL,Elkmont,473.0,34.9291,-86.9767,39583.0,11.2,78.2,85.9,12.7,1.2,0.0,0.0
AL,Eufaula,8727.0,31.9102,-85.1505,32845.0,25.3,81.5,51.0,44.6,0.5,0.6,4.3
AL,Fairhope,20935.0,30.522,-87.8816,61489.0,11.2,95.4,91.1,6.2,0.2,0.7,2.8
AL,Florence,78112.0,34.8303,-87.6654,35731.0,24.6,84.4,75.0,19.4,0.4,1.4,3.6
AL,Gadsden,61656.0,34.009,-86.0156,29136.0,29.4,78.3,57.3,36.3,0.4,0.6,5.4
AL,Gordo,1644.0,33.322,-87.904,30781.0,26.3,80.4,58.9,37.8,0.2,0.2,1.5
AL,Hamilton,6646.0,34.1346,-87.9755,33053.0,18.5,82.7,89.3,7.7,0.4,0.2,3.1
AL,Hanceville,3352.0,34.0634,-86.7652,29231.0,25.8,77.7,92.4,3.6,0.2,0.7,2.4
AL,Haynesville,4178.0,,,,,,,,,,
AL,Homewood,25476.0,33.4617,-86.8092,61626.0,12.7,93.5,74.6,17.3,0.2,2.2,7.3
AL,Hoover,84920.0,33.3754,-86.8065,77146.0,6.0,95.2,75.1,14.8,0.2,5.1,6.0
AL,Huntsville,309716.0,34.6988,-86.6412,48775.0,18.2,90.2,60.3,31.2,0.6,2.4,5.8
AL,Jackson County,4178.0,,,,,,,,,,
AL,Jacksonville,12612.0,33.8088,-85.7544,38903.0,31.2,89.0,68.7,26.8,0.5,1.3,2.3
AL,Killeen,4178.0,,,,,,,,,,
AL,Lawrence County,4178.0,,,,,,,,,,
AL,Leeds,12031.0,33.5429,-86.5636,52689.0,15.4,87.2,78.7,14.3,0.4,0.6,6.6
AL,Luverne,2770.0,31.7186,-86.2687,29844.0,20.3,77.9,62.6,29.6,0.3,5.5,1.9
AL,Macon County,4178.0,,,,,,,,,,
AL,Madison,48861.0,34.7114,-86.7626,92960.0,6.7,95.7,74.0,14.6,0.5,7.0,4.3
AL,Meridianville,6731.0,34.8729,-86.5722,68368.0,15.4,86.6,76.3,18.5,0.7,1.7,2.7
AL,Millbrook,15318.0,32.5035,-86.3728,58330.0,11.6,91.3,74.2,21.6,0.4,0.8,2.8
AL,Mobile,318084.0,30.6782,-88.1163,38776.0,23.3,86.9,45.0,50.6,0.3,1.8,2.4
AL,Monroeville,4395.0,31.5162,-87.3279,30678.0,36.7,82.3,42.1,55.7,0.3,0.3,0.8
AL,Montgomery,255908.0,32.3473,-86.2666,42927.0,24.1,85.5,37.3,56.6,0.2,2.2,3.9
AL,Morris,1970.0,33.7467,-86.8036,70043.0,5.8,84.9,97.7,1.0,0.1,0.3,1.1
AL,Muscle Shoals,14022.0,34.7435,-87.6343,48896.0,10.7,88.7,80.6,15.3,0.3,0.9,2.7
AL,Ohatchee,1157.0,33.7877,-86.0278,51688.0,14.8,82.0,94.1,3.2,0.6,0.0,0.6
AL,Opelika,30240.0,32.6621,-85.3772,40489.0,23.0,83.7,50.6,43.5,0.3,1.7,4.4
AL,Opp,4668.0,31.2848,-86.257,34695.0,25.9,77.4,80.9,16.7,0.6,0.3,0.9
AL,Oxford,21180.0,33.5966,-85.869,51375.0,11.7,83.5,80.5,12.6,0.4,1.1,6.6
AL,Ozark,11678.0,31.4508,-85.6473,37813.0,23.1,82.5,64.8,30.2,0.7,0.9,3.2
AL,Pell City,11952.0,33.5609,-86.2668,41944.0,20.8,86.5,80.8,15.6,0.3,0.8,2.3
AL,Phenix City,36219.0,32.4588,-85.0251,36698.0,21.0,84.8,48.7,46.6,0.3,0.7,4.0
AL,Piedmont,3471.0,33.9267,-85.6157,28884.0,25.6,76.8,87.0,10.0,0.5,0.1,1.3
AL,Prichard,21732.0,30.7735,-88.1301,23785.0,36.3,78.5,12.5,85.8,0.4,0.1,0.8
AL,Rainbow City,9555.0,33.9337,-86.0922,49338.0,17.7,92.5,87.4,7.2,0.4,2.6,2.4
AL,Ranburne,404.0,33.5259,-85.339,50909.0,5.8,86.5,99.0,0.0,0.2,0.0,0.2
AL,Saraland,14576.0,30.8457,-88.099,52621.0,11.2,85.4,83.7,12.0,0.8,0.6,2.5
AL,Selma,21083.0,32.4166,-87.0336,22414.0,41.9,77.8,18.0,80.3,0.2,0.6,0.6
AL,Semmes,4934.0,30.7886,-88.2342,46596.0,19.2,77.3,,,,,
AL,Sylacauga,17307.0,33.1779,-86.2606,33407.0,29.8,82.5,66.6,30.2,0.4,0.5,2.3
AL,Talladega,13277.0,33.4329,-86.0976,40157.5,19.85,77.0,68.75,28.25,0.15,0.25,1.7
AL,Tuscaloosa,154204.0,33.2348,-87.5266,39351.0,25.1,87.3,53.8,41.5,0.2,1.8,3.0
AL,Tuscumbia,8398.0,34.7204,-87.7035,41176.0,15.3,86.2,75.9,21.2,0.4,0.3,1.4
AL,Vestavia Hills,34291.0,33.4518,-86.7438,84854.0,4.3,97.3,90.4,3.8,0.2,3.8,2.5
AL,Washington County,4178.0,,,,,,,,,,
AL,Westover,1682.0,33.3692,-86.5354,58906.0,13.4,85.2,93.6,2.5,0.9,0.5,2.3
AR,Alexander,3057.0,34.6185,-92.4512,37882.0,26.4,78.1,68.0,13.1,0.6,0.6,19.4
AR,Atkins,3038.0,35.2414,-92.9465,40122.0,8.8,79.6,95.6,0.9,0.8,0.1,2.3
AR,Austin,3282.0,35.0069,-91.9896,70652.0,7.7,95.9,94.2,2.0,0.3,0.4,4.3
AR,Batesville,12050.0,35.7687,-91.6226,38092.0,20.9,84.6,83.2,4.3,0.6,1.5,13.5
AR,Benton,35789.0,34.5771,-92.5715,51778.0,11.4,87.0,88.8,6.0,0.5,0.9,4.5
AR,Bentonville,49298.0,36.355,-94.2299,71941.0,7.7,92.4,81.4,2.5,1.2,8.3,8.7
AR,Blytheville,16388.0,35.9322,-89.9051,32958.0,27.0,83.0,39.8,56.2,0.3,0.8,3.0
AR,Bryant,20194.0,34.6152,-92.4912,60162.0,4.1,93.5,87.0,6.7,0.4,1.6,4.7
AR,Bull Shoals,1944.0,36.3747,-92.5902,35737.0,13.9,93.4,97.5,0.1,0.4,0.3,1.4
AR,Cabot,26141.0,34.9764,-92.0273,57790.0,11.4,92.4,93.1,1.6,0.6,1.5,4.1
AR,Clarksville,7664.0,35.4569,-93.4803,31452.0,24.9,78.1,75.5,3.0,0.8,0.9,25.7
AR,Desha,4178.0,,,,,,,,,,
AR,Dover,1407.0,35.391,-93.1143,33917.0,23.6,85.2,94.6,0.4,1.9,0.1,3.6
AR,England,2683.0,34.5459,-91.969,31577.0,29.9,82.3,64.1,33.6,0.2,0.1,1.9
AR,Farmington,6893.0,36.037,-94.2537,50609.0,11.4,92.3,90.2,1.2,1.1,1.2,5.9
AR,Fayetteville,341890.0,36.0713,-94.166,39432.0,24.0,91.7,83.8,6.0,1.1,3.1,6.4
AR,Formosa,4178.0,,,,,,,,,,
AR,Forrest City,12728.0,35.0102,-90.7874,31322.0,27.7,79.1,27.6,67.3,0.7,0.7,5.9
AR,Fort Smith,125562.0,35.3493,-94.3695,35096.0,26.9,80.2,69.3,9.0,1.8,5.3,16.5
AR,Hackett,825.0,35.1877,-94.4107,31696.0,26.9,80.5,92.0,0.1,3.4,0.6,0.6
AR,Helena,4178.0,,,22055.0,44.2,77.1,23.9,74.5,0.3,0.4,1.2
AR,Helena-West Helena,9864.0,34.5314,-90.6201,22055.0,44.2,77.1,23.9,74.5,0.3,0.4,1.2
AR,Jacksonville,28513.0,34.8807,-92.1302,41006.0,18.7,86.0,57.7,32.7,0.6,2.1,6.7
AR,Jonesboro,73788.0,35.8211,-90.6793,41688.0,23.7,89.1,74.7,18.4,0.4,1.5,5.2
AR,Little Rock,442699.0,34.7255,-92.358,46085.0,17.8,90.7,48.9,42.3,0.4,2.7,6.8
AR,London,1051.0,35.328,-93.2417,32390.0,30.3,74.8,94.9,0.4,0.7,0.9,1.4
AR,Lone Rock,4178.0,,,,,,,,,,
AR,Lowell,9215.0,36.2563,-94.1518,53676.0,12.2,82.6,77.8,0.9,1.4,2.7,24.7
AR,Magnolia,10339.0,33.2774,-93.2261,34163.0,31.7,84.3,53.9,41.9,0.4,1.2,2.2
AR,Manila,3064.0,35.8848,-90.1648,30114.0,32.6,80.7,96.4,0.5,0.3,0.1,2.9
AR,Marion,12440.0,35.2041,-90.2061,61669.0,10.9,89.3,68.1,28.0,0.4,1.5,2.0
AR,Mena,5339.0,34.581,-94.2374,28509.0,18.5,88.8,94.4,0.2,1.6,0.8,3.4
AR,Mississippi County,4178.0,,,,,,,,,,
AR,Mountain Pine,773.0,34.5693,-93.1726,31333.0,25.0,69.4,74.2,20.4,1.2,0.5,3.2
AR,Mulberry,1641.0,35.5102,-94.0734,27229.0,30.0,82.5,96.3,0.7,1.7,0.1,2.0
AR,North Little Rock,65911.0,34.7807,-92.2372,39591.0,26.1,87.9,54.0,39.7,0.4,0.9,5.7
AR,Ozark,3090.0,35.4995,-93.8431,31555.0,31.1,78.4,95.3,0.7,0.9,0.4,3.1
AR,Perryville,1436.0,35.012,-92.803,37137.0,14.0,85.8,96.9,0.2,0.5,0.1,1.7
AR,Pine Bluff,46850.0,34.2116,-92.0178,30719.0,32.1,84.8,21.8,75.6,0.2,0.6,1.5
AR,Pope County,4178.0,,,,,,,,,,
AR,Rector,1799.0,36.2642,-90.2936,33156.0,30.0,84.3,97.2,0.2,0.3,0.1,2.2
AR,Romance,4178.0,,,,,,,,,,
AR,Rose Bud,487.0,35.325,-92.0812,62222.0,15.9,78.6,90.0,0.0,0.2,0.2,7.1
AR,Russellville,34373.0,35.2763,-93.1383,35541.0,26.2,81.3,83.2,5.5,0.7,1.6,11.7
AR,Searcy County,4178.0,,,,,,,,,,
AR,Sheridan,4731.0,34.2996,-92.4225,45966.0,10.2,90.4,95.0,1.6,0.4,0.5,2.8
AR,Shirley,276.0,35.6442,-92.3137,25313.0,33.3,88.1,96.9,0.0,0.3,0.0,1.7
AR,Sims,4178.0,,,,,,,,,,
AR,Springdale,79599.0,36.1898,-94.1573,42319.0,23.3,71.7,64.7,1.8,1.0,2.0,35.4
AR,St. Francis County,4178.0,,,,,,,,,,
AR,Stone County,4178.0,,,,,,,,,,
AR,Strong,520.0,33.1079,-92.3598,19931.0,23.0,74.4,31.5,60.8,0.2,0.2,8.2
AR,Trumann,6951.0,35.6761,-90.5231,29303.0,26.4,77.2,90.3,6.7,0.4,0.3,2.7
AR,Van Buren,23509.0,35.448,-94.3529,39414.0,22.9,86.0,82.3,2.1,2.4,3.1,11.6
AR,Warren,5463.0,33.6113,-92.0678,28938.0,30.8,75.8,45.3,40.9,0.3,0.3,15.0
AR,West Memphis,24860.0,35.1531,-90.1995,30627.0,30.9,80.6,34.4,63.5,0.2,0.4,1.6
AR,Yellville,1159.0,36.2289,-92.686,29402.0,16.8,79.2,97.1,0.2,0.8,0.2,2.6
AZ,Ahwatukee,4178.0,,,,,,,,,,
AZ,Apache Junction,40538.0,33.3985,-111.5351,35671.0,24.0,85.5,89.5,1.2,1.1,0.8,14.4
AZ,Avondale,217192.0,33.3858,-112.3236,55100.0,18.6,79.0,58.1,9.3,1.7,3.5,50.3
AZ,Bisbee,5160.0,31.4126,-109.9178,31010.0,29.1,87.3,84.2,1.4,1.5,0.5,36.2
AZ,Buckeye,68453.0,33.4314,-112.6429,58939.0,14.8,84.3,65.7,7.1,1.8,1.8,38.3
AZ,Bullhead City,49531.0,35.1205,-114.546,35948.0,19.7,82.7,81.9,1.3,1.1,1.4,23.7
AZ,Casa Grande,58632.0,32.9068,-111.7624,44348.0,16.9,86.4,67.3,4.6,4.6,1.8,39.0
AZ,Chandler,253458.0,33.2827,-111.8517,72695.0,10.0,91.5,73.3,4.8,1.5,8.2,21.9
AZ,Chinle,5698.0,36.1504,-109.5793,41296.0,38.8,83.1,6.3,0.3,91.4,0.3,2.6
AZ,Clarkdale,4330.0,34.7501,-112.0549,46949.0,6.6,94.7,86.2,0.9,6.1,0.5,13.4
AZ,Cottonwood,12023.0,34.7194,-112.0015,39157.5,14.75,84.75,42.0,0.4,50.699999999999996,0.45,11.4
AZ,Douglas,16438.0,31.3602,-109.5394,27975.0,32.0,70.9,68.2,2.8,1.7,0.5,82.6
AZ,Eagar,6089.0,34.1058,-109.2956,50675.0,18.0,89.2,87.8,0.6,3.4,0.2,18.8
AZ,Ehrenberg,844.0,33.6174,-114.4883,37125.0,12.4,79.1,76.1,1.2,1.3,0.9,32.4
AZ,El Mirage,35216.0,33.5905,-112.3271,50326.0,19.9,82.8,60.9,6.6,1.4,1.6,47.6
AZ,Flagstaff,78628.0,35.1872,-111.6195,48680.0,24.2,91.3,73.4,1.9,11.7,1.9,18.4
AZ,Florence,16935.0,33.059,-111.4209,47891.0,16.8,75.6,63.4,6.3,14.4,0.9,31.2
AZ,Gilbert,242354.0,33.3103,-111.7463,82424.0,6.6,95.6,81.8,3.4,0.8,5.8,14.9
AZ,Glendale,246709.0,33.5797,-112.2258,46776.0,21.7,83.6,67.8,6.0,1.7,3.9,35.5
AZ,Globe,13198.0,33.3869,-110.7514,42405.0,19.8,83.0,79.6,0.9,5.7,1.1,36.8
AZ,Golden Shores,1294.0,34.7819,-114.4777,29118.0,7.4,77.9,94.2,0.3,1.0,0.3,7.7
AZ,Golden Valley,8694.0,35.206,-114.2327,33639.0,25.1,81.6,90.9,0.5,1.5,0.9,10.5
AZ,Goodyear,79858.0,33.2614,-112.3622,46342.0,30.450000000000003,85.05,38.7,3.8000000000000003,46.15,2.25,26.700000000000003
AZ,Grand Canyon Caverns,4178.0,,,,,,,,,,
AZ,Kearny,2095.0,33.0564,-110.9074,43563.0,21.2,87.7,83.2,0.5,0.8,0.4,41.6
AZ,Kingman,44212.0,35.217,-114.0105,43246.0,20.7,87.0,88.0,1.0,1.7,1.7,12.5
AZ,La Paz County,4178.0,,,,,,,,,,
AZ,Lake Havasu,4178.0,,,42847.0,13.8,88.5,90.1,0.7,1.0,1.0,12.1
AZ,Lake Havasu City,55341.0,34.5006,-114.3113,42847.0,13.8,88.5,90.1,0.7,1.0,1.0,12.1
AZ,Marana,44792.0,32.4355,-111.1558,74438.0,5.8,94.1,82.0,2.5,1.2,3.8,22.1
AZ,Maricopa,46741.0,33.0404,-112.0006,49861.0,24.55,80.4,35.75,5.0,47.1,2.0999999999999996,19.299999999999997
AZ,Mesa,496401.0,33.4017,-111.7181,39541.0,20.5,85.9,85.1,1.95,1.45,1.0,18.049999999999997
AZ,Morenci,1689.0,33.0531,-109.3307,65706.0,6.8,94.3,70.7,2.4,2.9,0.7,53.1
AZ,Parker,4730.0,34.0286,-114.2224,47701.5,13.2,87.2,69.55,0.85,10.450000000000001,0.8,23.75
AZ,Parks,1652.0,35.2939,-111.9771,55185.0,8.9,96.2,91.2,0.4,2.4,0.2,9.8
AZ,Paulden,5064.0,34.8899,-112.4938,42794.0,21.8,84.8,82.8,0.7,1.4,0.4,24.3
AZ,Peoria,168181.0,33.7844,-112.299,65314.0,9.2,92.4,82.2,3.4,1.0,3.2,18.6
AZ,Phoenix,4081849.0,33.5722,-112.0891,47326.0,23.1,80.7,65.9,6.5,2.2,3.2,40.8
AZ,Picture Rocks,8666.0,32.3274,-111.2558,55643.0,13.3,89.6,89.3,0.8,1.4,0.5,16.3
AZ,Pima,2513.0,32.8886,-109.8437,47277.0,22.5,87.8,87.4,0.4,0.6,0.1,20.9
AZ,Pima County,4178.0,,,,,,,,,,
AZ,Pinetop,4178.0,,,62850.0,0.0,97.2,91.1,0.2,2.7,1.1,10.2
AZ,Pinetop-Lakeside,4361.0,34.1486,-109.9658,58875.0,22.5,92.8,89.1,0.6,3.4,0.8,14.4
AZ,Prescott,42731.0,34.585,-112.4475,43708.5,16.85,90.19999999999999,90.1,0.75,1.15,1.2,12.649999999999999
AZ,Quartzsite,3357.0,33.6675,-114.217,29863.0,10.1,81.0,92.5,0.3,1.9,0.3,6.7
AZ,Red Valley,4178.0,,,,,,,,,,
AZ,Salt River Reservation,4178.0,,,,,,,,,,
AZ,San Manuel,3714.0,32.6091,-110.6415,43629.0,17.1,87.2,78.1,0.8,2.4,0.5,49.9
AZ,Scottsdale,249950.0,33.6872,-111.8651,73288.0,9.5,96.2,89.3,1.7,0.8,3.3,8.8
AZ,Sedona,6967.0,34.8574,-111.7951,55135.0,8.1,95.6,90.1,0.5,0.6,1.9,14.3
AZ,Show Low,10837.0,34.2671,-110.0384,42614.0,18.4,88.7,87.6,0.4,4.1,0.8,12.8
AZ,Sierra Vista,51571.0,31.563,-110.3153,55558.5,14.0,93.95,80.7,5.4,1.05,2.8499999999999996,18.549999999999997
AZ,Somerton,19168.0,32.6009,-114.699,31540.0,31.5,51.0,64.4,0.9,0.8,0.4,95.9
AZ,Sun City,39000.0,33.6165,-112.2819,40489.5,6.9,92.55,97.15,1.1,0.2,0.6499999999999999,2.0
AZ,Surprise,134085.0,33.68,-112.4524,59916.0,9.8,92.9,80.6,5.1,0.7,2.6,18.5
AZ,Tempe,185038.0,33.3881,-111.9318,49012.0,21.6,91.7,72.6,5.9,2.9,5.7,21.1
AZ,Three Points,5453.0,32.0596,-111.2865,36681.0,29.6,74.4,73.6,0.9,3.8,0.5,38.0
AZ,Tolleson,7205.0,33.4484,-112.2561,31388.0,29.3,62.4,50.1,6.6,1.9,0.9,80.1
AZ,Tonalea,335.0,36.3218,-110.9667,23750.0,18.7,65.8,0.2,0.0,97.6,0.0,1.1
AZ,Tucson,868391.0,32.1545,-110.8782,40534.0,20.65,86.15,74.85,3.3,2.4000000000000004,2.0,37.0
AZ,Tuscson,4178.0,,,,,,,,,,
AZ,Wilhoit,870.0,34.4083,-112.6156,34167.0,24.0,80.1,94.2,0.2,0.7,0.2,9.3
AZ,Winslow,9508.0,35.0252,-110.7098,28802.0,39.1,68.05,48.3,3.4000000000000004,34.75,0.5,25.099999999999998
AZ,Youngtown,6760.0,33.5846,-112.3047,38205.0,22.5,82.7,73.3,4.3,1.4,2.8,33.0
AZ,Yuma,138802.0,32.5991,-114.5488,43754.0,18.4,77.5,68.8,3.2,1.8,1.9,54.8
CA,Adelanto,34066.0,34.5815,-117.4397,33298.0,40.3,67.5,43.8,20.5,1.3,1.9,58.3
CA,Aguanga,830.0,33.4522,-116.8555,43505.0,7.0,81.1,82.4,1.0,1.8,2.1,24.3
CA,Alhambra,85396.0,34.084,-118.1355,84916.0,9.0,85.6,59.5,0.9,0.3,28.7,21.6
CA,Alpine,14795.0,32.8439,-116.7585,72275.0,6.1000000000000005,90.3,83.55,0.6,9.15,1.55,9.95
CA,Anaheim,352497.0,33.839,-117.8573,60752.0,16.5,75.8,52.7,2.8,0.8,14.8,52.8
CA,Anderson,10370.0,40.451,-122.2962,32536.0,24.6,85.0,83.3,0.7,4.3,2.6,10.8
CA,Antelope,47728.0,38.7153,-121.361,63607.0,13.0,91.2,63.8,8.8,0.9,13.3,14.5
CA,Antioch,302885.0,37.9789,-121.7957,64329.0,15.4,86.9,48.9,17.3,0.9,10.5,31.7
CA,Apple Valley,73077.0,34.5328,-117.2104,47938.0,20.6,86.0,69.1,9.1,1.1,2.9,29.2
CA,Arcata,33806.0,40.8615,-124.0757,29435.0,41.3,91.9,81.8,2.0,2.3,2.6,11.6
CA,Artesia,16904.0,33.8676,-118.0806,60749.0,12.4,76.9,39.0,3.6,0.6,37.1,35.8
CA,Ashland,24477.0,37.6942,-122.1159,45621.0,18.4,76.6,30.6,19.5,1.1,18.4,42.8
CA,Atascadero,30418.0,35.4827,-120.6858,66607.0,11.0,92.6,86.4,2.1,1.0,2.4,15.6
CA,Atwater,29397.0,37.3543,-120.5981,41414.0,26.2,72.5,65.4,4.3,1.3,5.0,52.6
CA,Auburn,34818.0,38.895,-121.0777,77429.5,7.4,95.4,91.05,0.5,0.9,1.4500000000000002,8.05
CA,Avenal,12425.0,36.0312,-120.116,32432.0,36.4,48.8,39.0,10.5,1.2,0.7,71.8
CA,Azusa,49864.0,34.1386,-117.9124,53135.0,17.6,77.7,57.6,3.2,1.2,8.7,67.6
CA,Bakersfield,574362.0,35.353,-119.0359,57095.0,19.8,79.6,56.8,8.2,1.5,6.2,45.5
CA,Baldwin Hills,4178.0,,,,,,,,,,
CA,Banning,31230.0,33.9461,-116.8991,40405.0,21.2,80.0,64.7,7.3,2.2,5.2,41.1
CA,Barona Indian Reservation,4178.0,,,,,,,,,,
CA,Barstow,30606.0,34.8661,-117.0472,39632.0,33.7,79.8,52.3,14.6,2.1,3.2,42.8
CA,Bassett,4178.0,,,,,,,,,,
CA,Beaumont,46967.0,33.907,-116.9762,64830.0,11.8,86.8,62.8,6.2,1.5,7.7,40.3
CA,Bell,35811.0,33.9801,-118.1798,37882.0,27.7,47.4,53.8,0.9,0.9,0.7,93.1
CA,Bell Gardens,42747.0,33.9663,-118.155,37882.0,28.1,44.3,49.5,0.9,1.1,0.6,95.7
CA,Bellflower,77772.0,33.888,-118.1271,48823.0,17.9,77.6,42.2,14.0,1.0,11.6,52.3
CA,Big Sur,4178.0,,,,,,,,,,
CA,Boulder Creek,4359.0,37.1341,-122.1271,79964.0,10.9,93.5,90.0,1.1,0.6,1.6,7.4
CA,Boyle Heights,4178.0,,,,,,,,,,
CA,Brawley,26472.0,32.9783,-115.5288,37637.0,25.2,70.4,54.4,2.0,1.0,1.4,81.5
CA,Brea,42777.0,33.9254,-117.8654,83717.0,7.1,92.1,67.1,1.4,0.5,18.2,25.0
CA,Burbank,104834.0,34.1879,-118.3235,65774.0,11.55,86.85,66.75,2.6,0.9,9.65,37.7
CA,Butte County,4178.0,,,,,,,,,,
CA,Byron,1480.0,37.8756,-121.6421,74583.0,3.6,73.0,71.3,4.8,0.9,0.3,39.4
CA,Cabazon,3928.0,33.9127,-116.7828,35833.0,30.7,74.1,69.1,5.3,3.6,1.5,44.8
CA,Calabasas,24202.0,34.1375,-118.6689,106050.0,7.9,97.0,83.9,1.6,0.2,8.6,6.4
CA,Calaveras County,4178.0,,,,,,,,,,
CA,Calexico,40351.0,32.6849,-115.4944,34742.0,27.4,56.6,60.0,0.3,0.5,1.3,96.8
CA,Calimesa,8817.0,33.9874,-117.0542,46025.0,14.8,88.3,86.0,1.1,1.3,1.3,22.4
CA,Camarillo,74682.0,34.223,-119.0322,88152.0,6.4,92.2,75.1,1.9,0.6,10.2,22.9
CA,Campo,2971.0,32.6394,-116.4745,57521.0,26.8,75.8,77.6,4.2,3.4,1.2,29.6
CA,Carmichael,65091.0,38.6337,-121.323,54322.0,16.6,93.4,80.6,4.8,0.9,4.3,11.7
CA,Carson,92735.0,33.8374,-118.2559,72421.0,10.9,79.6,23.8,23.8,0.6,25.6,38.6
CA,Castaic,19299.0,34.4818,-118.6317,104427.0,6.8,91.9,71.6,3.3,0.6,11.4,24.8
CA,Cathedral City,54596.0,33.8363,-116.4642,39872.0,23.1,75.3,63.5,2.6,1.1,5.0,58.8
CA,Ceres,48697.0,37.5953,-120.9625,47858.0,17.9,67.9,57.7,2.6,1.3,6.8,56.0
CA,Cerritos,51020.0,33.8677,-118.0686,90321.0,4.8,91.7,23.1,6.9,0.3,61.9,12.0
CA,Charleston View,4178.0,,,,,,,,,,
CA,Chatsworth,4178.0,,,,,,,,,,
CA,Chico,106268.0,39.7575,-121.8152,42342.0,24.9,92.0,80.8,2.1,1.4,4.2,15.4
CA,Chino,89797.0,33.9836,-117.6654,84893.0,9.05,85.45,53.599999999999994,5.4,0.75,20.4,41.45
CA,Chino Hills,80374.0,33.9507,-117.7253,96914.0,6.5,93.2,50.8,4.6,0.5,30.3,29.1
CA,Chowchilla,11740.0,37.1095,-120.2349,34559.0,32.1,68.3,61.6,12.6,2.0,2.1,37.8
CA,Chula Vista,270471.0,32.6281,-117.0145,65185.0,12.5,80.9,53.7,4.6,0.8,14.4,58.2
CA,Citrus Heights,87931.0,38.6948,-121.288,50047.0,15.4,89.9,80.3,3.3,0.9,3.3,16.5
CA,City Terrace,4178.0,,,,,,,,,,
CA,Clearlake Oaks,2275.0,39.0218,-122.6593,27552.0,31.4,84.2,87.1,2.3,1.9,1.4,8.1
CA,Clearlake Park,4178.0,,,,,,,,,,
CA,Cloverdale,9362.0,38.7962,-123.0154,63917.0,6.7,82.4,74.9,0.6,1.8,1.1,32.8
CA,Clovis,109691.0,36.8277,-119.6838,62666.0,13.8,88.9,70.9,2.7,1.4,10.7,25.6
CA,Coalinga,15915.0,36.1432,-120.3266,51860.0,23.2,73.0,57.8,4.1,1.3,3.0,53.5
CA,Colton,54828.0,34.0538,-117.3254,41565.0,22.1,70.1,43.4,9.7,1.3,5.0,71.0
CA,Compton,97612.0,33.893,-118.2275,43507.0,26.6,60.1,25.9,32.9,0.7,0.3,65.0
CA,Concord,654770.0,37.9722,-122.0016,68318.0,13.3,87.1,64.5,3.6,0.7,11.1,30.6
CA,Corning,8473.0,39.9282,-122.182,31667.0,29.6,75.3,71.9,0.6,2.6,1.1,42.7
CA,Corona,167836.0,33.862,-117.5641,74149.0,11.7,84.8,59.7,5.9,0.8,9.9,43.6
CA,Cottonwood,3268.0,40.3904,-122.2861,39085.0,34.4,79.0,85.8,0.1,3.0,3.3,10.6
CA,Covina,48462.0,34.0903,-117.8817,64813.0,10.9,86.0,58.5,4.2,1.1,11.9,52.4
CA,Crescent City,15886.0,41.7727,-124.1902,27622.0,28.7,66.1,66.1,11.9,4.8,4.4,30.6
CA,Daly City,107074.0,37.6863,-122.4684,74449.0,9.7,85.4,23.6,3.6,0.4,55.6,23.7
CA,Danville,44786.0,37.8121,-121.9698,140809.0,4.1,97.9,83.1,0.9,0.2,10.5,6.8
CA,Davis,76524.0,38.5552,-121.7365,56463.0,28.8,96.1,64.9,2.3,0.5,21.9,12.5
CA,Del Mar,4363.0,32.9633,-117.2627,107013.0,3.5,98.8,94.0,0.2,0.2,2.8,4.2
CA,Delano,54471.0,35.767,-119.2637,35933.0,30.3,55.0,36.4,7.9,0.9,12.7,71.5
CA,Delhi,11622.0,37.4306,-120.7759,49716.0,17.3,55.5,52.6,1.1,1.5,3.8,71.7
CA,Desert Hot Springs,43730.0,33.9551,-116.543,33027.0,34.9,67.7,58.0,8.2,1.4,2.6,52.6
CA,Dinuba,24034.0,36.5453,-119.3987,36860.0,28.6,58.6,52.0,0.7,0.9,2.1,84.4
CA,Douglas City,533.0,40.6636,-122.9261,31776.0,40.8,94.1,89.6,0.0,3.1,1.1,6.6
CA,Downey,113092.0,33.9379,-118.1312,62897.0,11.4,76.1,56.6,3.9,0.7,7.0,70.7
CA,Duarte,21757.0,34.1609,-117.9504,62089.0,15.5,82.2,51.9,7.4,0.8,15.8,47.8
CA,Dunsmuir,1580.0,41.2319,-122.2714,24770.0,24.5,88.3,87.5,1.9,1.0,0.9,10.1
CA,Durham,5819.0,39.6232,-121.7875,70374.0,17.2,97.5,92.2,0.3,1.0,0.6,11.1
CA,East Hollywood,4178.0,,,,,,,,,,
CA,East Los Angeles,123905.0,34.0326,-118.1691,38766.0,27.2,46.7,50.5,0.6,1.2,0.9,97.1
CA,Edison,4178.0,,,,,,,,,,
CA,El Cajon,103894.0,32.8017,-116.9604,45925.0,24.2,80.4,69.3,6.3,0.8,3.6,28.2
CA,El Centro,112145.0,32.7867,-115.5586,40517.0,25.2,69.4,59.6,2.5,1.3,2.3,81.6
CA,El Cerrito,25515.0,37.9197,-122.3025,74681.0,7.8,85.19999999999999,61.4,4.75,0.8,14.6,31.6
CA,El Monte,116109.0,34.0739,-118.0291,38085.0,24.9,57.8,38.8,0.8,1.0,25.1,69.0
CA,El Sereno,4178.0,,,,,,,,,,
CA,Elk Grove,171844.0,38.416,-121.384,79487.0,10.4,90.5,46.1,11.2,0.6,26.3,18.0
CA,Emeryville,11758.0,37.8382,-122.2932,77806.0,11.9,96.9,44.5,17.5,0.4,27.5,9.2
CA,Encinitas,63184.0,33.049,-117.2613,95149.0,8.1,94.4,85.8,0.6,0.5,3.9,13.7
CA,Escalon,7615.0,37.7912,-120.9981,52125.0,15.0,88.3,81.6,0.4,1.1,1.3,27.0
CA,Escondido,151969.0,33.1347,-117.0723,50899.0,18.7,73.6,60.4,2.5,1.0,6.1,48.9
CA,Eureka,45010.0,40.7941,-124.1568,37094.0,24.5,86.5,79.3,1.9,3.7,4.2,11.6
CA,Fair Oaks,30704.0,38.6504,-121.2497,73115.0,11.9,94.3,85.7,2.4,0.8,4.2,9.6
CA,Fairfield,147582.0,38.2594,-122.0319,67364.0,13.2,85.6,46.0,15.7,0.8,14.9,27.3
CA,Florence,4178.0,,,,,,,,,,
CA,Fontana,211815.0,34.0968,-117.4599,64824.0,16.1,72.5,47.4,10.0,1.0,6.6,66.8
CA,Foresthill,1475.0,39.0053,-120.8313,24755.0,31.9,83.0,92.4,0.5,2.0,0.4,6.5
CA,Fountain Valley,56313.0,33.7105,-117.9514,82367.0,8.1,90.2,56.5,0.9,0.4,33.3,13.1
CA,Fremont,234962.0,37.5265,-121.9852,105355.0,6.1,92.3,32.8,3.3,0.5,50.6,14.8
CA,Fresno,698021.0,36.7831,-119.7941,41531.0,29.8,75.2,49.6,8.3,1.7,12.6,46.9
CA,Fullerton,140392.0,33.8841,-117.9279,65974.0,16.8,86.6,53.9,2.3,0.6,22.8,34.4
CA,Garden Grove,174226.0,33.7787,-117.9601,58449.0,17.6,73.7,39.9,1.3,0.6,37.1,36.9
CA,Gardena,60224.0,33.8944,-118.3073,47674.0,15.0,81.8,24.6,24.4,0.6,26.2,37.7
CA,Gilroy,116235.0,37.0047,-121.5856,83027.0,15.1,77.0,58.7,1.9,1.7,7.1,57.8
CA,Glen Valley,4178.0,,,,,,,,,,
CA,Glendale,203054.0,34.1818,-118.2468,52574.0,14.6,84.4,71.1,1.3,0.3,16.4,17.4
CA,Glendora,52445.0,34.1449,-117.8467,75148.0,9.4,90.2,75.1,1.9,0.7,8.0,30.7
CA,Goleta,31116.0,34.436,-119.8595,80438.0,8.6,89.5,69.7,1.6,0.9,9.1,32.9
CA,Grand Terrace,12595.0,34.0312,-117.3132,63871.0,9.9,89.3,65.7,5.6,1.0,6.5,39.1
CA,Grass Valley,34650.0,39.2237,-121.0521,33700.0,28.4,88.7,89.4,0.4,1.6,1.5,10.4
CA,Grover Beach,13628.0,35.1204,-120.6199,54228.0,13.8,85.9,75.7,1.1,1.4,4.1,29.2
CA,Hacienda Heights,54155.0,33.997,-117.9728,78039.0,7.9,85.8,40.5,1.4,0.6,37.1,45.5
CA,Half Moon Bay,23540.0,37.4688,-122.4383,103255.0,3.7,83.8,75.8,0.7,0.6,4.3,31.5
CA,Hanford,92066.0,36.3264,-119.6544,53986.0,20.5,80.8,62.5,4.9,1.3,4.3,47.1
CA,Happy Valley,4178.0,,,,,,,,,,
CA,Hawaiian Gardens,14450.0,33.8303,-118.0728,37571.0,30.7,58.8,45.4,3.8,1.2,10.6,77.2
CA,Hawthorne,87854.0,33.9146,-118.3476,44504.0,20.1,73.8,32.8,27.7,0.7,6.7,52.9
CA,Hayward,160500.0,37.6328,-122.0772,65096.0,13.4,80.1,34.2,11.9,1.0,22.0,40.7
CA,Hemet,176892.0,33.7341,-116.9969,33989.0,26.0,79.5,67.7,6.4,1.6,3.0,35.8
CA,Herald,1125.0,38.2913,-121.2318,111058.0,15.4,89.3,78.9,1.7,1.1,5.4,21.5
CA,Hesperia,94859.0,34.3975,-117.3147,44874.0,24.8,77.2,61.1,5.8,1.2,2.1,48.9
CA,Highgrove,4302.0,34.0106,-117.3098,43021.0,31.9,69.0,52.8,4.1,1.0,2.8,65.3
CA,Highland,55342.0,34.1113,-117.1654,53851.0,20.7,75.0,52.4,11.1,1.0,7.4,48.1
CA,Hollywood,4178.0,,,,,,,,,,
CA,Hollywood Hills,4178.0,,,,,,,,,,
CA,Home Garden,1881.0,36.303,-119.637,32411.0,32.2,54.6,37.0,12.5,3.6,2.8,67.5
CA,Hope Ranch,4178.0,,,,,,,,,,
CA,Huntington Beach,201874.0,33.696,-118.0025,83252.0,9.4,92.4,76.7,1.0,0.5,11.1,17.1
CA,Huntington Park,58822.0,33.98,-118.2167,34887.0,29.6,41.4,51.2,0.8,1.3,0.7,97.1
CA,Huron,7311.0,36.204,-120.0961,27049.0,35.8,27.0,34.1,1.0,1.1,0.6,96.6
CA,Imperial County,4178.0,,,,,,,,,,
CA,Indio,408097.0,33.7346,-116.2346,47265.5,17.65,69.30000000000001,58.65,1.5,1.25,1.35,67.69999999999999
CA,Industry,204.0,34.0175,-117.9268,51835.0,2.4,90.7,58.9,0.5,0.0,8.2,52.5
CA,Inglewood,110598.0,33.9566,-118.3444,42044.0,22.4,72.5,23.3,43.9,0.7,1.4,50.6
CA,Inyokern,731.0,35.6546,-117.8213,67994.0,1.9,94.5,84.6,1.3,2.2,2.3,10.6
CA,Irvine,277453.0,33.6772,-117.7738,92278.0,12.3,96.3,50.5,1.8,0.2,39.2,9.2
CA,Jamestown,2618.0,37.9574,-120.411,35268.0,19.6,93.9,85.9,0.6,2.8,0.8,14.9
CA,Joshua Tree,7020.0,34.1236,-116.3128,36870.0,24.0,88.6,83.3,3.2,1.1,1.4,17.6
CA,Jurupa Valley,106028.0,34.001,-117.4706,57749.0,17.0,67.8,,,,,
CA,Kings County,4178.0,,,,,,,,,,
CA,La Habra,62466.0,33.9278,-117.9513,87209.5,8.299999999999999,88.5,65.35,1.3,0.7,12.600000000000001,40.35
CA,La Mirada,49095.0,33.9025,-118.0093,79330.0,7.5,88.8,60.7,2.3,0.8,17.8,39.7
CA,La Quinta,41304.0,33.6536,-116.2785,71091.0,9.6,89.6,78.7,1.9,0.6,3.1,30.3
CA,Ladera Heights,7081.0,33.9972,-118.374,102281.0,6.8,97.2,15.1,73.7,0.3,3.6,5.5
CA,Laguna Niguel,66334.0,33.5275,-117.705,95536.0,6.6,95.5,80.4,1.2,0.3,8.7,13.9
CA,Laguna Woods,16200.0,33.6099,-117.7299,38674.0,10.3,95.7,87.3,0.7,0.1,10.0,4.0
CA,Lake Elsinore,66411.0,33.6846,-117.3344,61248.0,14.6,76.9,60.0,5.3,0.9,5.8,48.4
CA,Lake Forest,84293.0,33.6606,-117.6712,91254.0,7.4,91.9,70.3,1.7,0.5,13.1,24.6
CA,Lakewood,80967.0,33.8471,-118.1221,79193.0,7.9,87.9,56.0,8.7,0.7,16.4,30.1
CA,Lamont,15597.0,35.2651,-118.9159,33351.0,37.4,42.2,44.2,0.9,1.5,0.5,94.5
CA,Lancaster,349218.0,34.6934,-118.1753,47225.0,23.5,81.4,49.6,20.5,1.0,4.3,38.0
CA,Lemon Grove,27108.0,32.7331,-117.0344,55404.0,15.1,81.4,51.6,13.8,0.9,6.4,41.2
CA,Lemoore,26355.0,36.296,-119.7983,45587.5,15.7,90.69999999999999,61.199999999999996,8.100000000000001,1.15,7.85,29.7
CA,Lincoln,47674.0,38.8759,-121.2916,63810.0,9.0,91.65,73.69999999999999,2.5,1.1,6.15,25.1
CA,Linda,19072.0,39.1242,-121.5421,36836.0,32.6,73.1,56.1,4.1,2.0,13.0,32.5
CA,Livermore,91030.0,37.6861,-121.7608,100992.0,5.7,91.5,74.6,2.1,0.6,8.4,20.9
CA,Lodi,72890.0,38.1218,-121.2933,49316.0,17.4,80.4,68.7,0.8,0.9,6.9,36.4
CA,Lompoc,52856.0,34.6618,-120.4714,44866.0,21.3,74.7,61.2,5.7,1.8,3.8,50.8
CA,Long Beach,469450.0,33.798,-118.1675,52783.0,20.6,79.4,46.1,13.5,0.7,12.9,40.8
CA,Los Angeles,12815475.0,34.1139,-118.4068,50205.0,22.1,75.5,49.8,9.6,0.7,11.3,48.5
CA,Los Banos,39122.0,37.0631,-120.8405,44292.0,26.2,66.8,58.0,3.8,1.4,3.2,64.9
CA,Lynwood,71099.0,33.924,-118.2017,43109.0,25.3,52.8,39.3,10.3,0.7,0.7,86.6
CA,Madera,83636.0,36.964,-120.0803,51015.0,20.450000000000003,67.55000000000001,56.8,3.0,2.45,1.7000000000000002,71.0
CA,Madera County,4178.0,,,,,,,,,,
CA,Marina,22145.0,36.6812,-121.7894,77194.0,14.15,90.15,62.5,6.35,0.5,14.149999999999999,17.45
CA,Martinez,38373.0,37.9985,-122.116,87959.0,6.1,93.3,77.1,3.6,0.7,8.0,14.7
CA,Marysville,12413.0,39.1518,-121.5836,34566.0,28.6,81.4,71.0,4.3,2.5,4.1,24.2
CA,Maywood,27586.0,33.9885,-118.1877,35582.0,30.1,41.2,52.0,0.6,0.8,0.3,97.4
CA,McKinneyville,4178.0,,,,,,,,,,
CA,Meadow Vista,3448.0,39.0029,-121.0304,77228.0,5.4,94.1,93.8,0.0,0.7,1.1,5.3
CA,Mecca,7893.0,33.5767,-116.0645,26047.0,43.1,28.8,31.3,0.5,0.5,0.2,98.7
CA,Menifee,90595.0,33.6909,-117.1849,55985.0,12.1,85.9,71.5,5.0,0.8,4.9,33.0
CA,Merced,144117.0,37.3057,-120.4779,37627.0,31.9,74.5,52.2,6.3,1.5,11.8,49.6
CA,Milpitas,78106.0,37.434,-121.8921,100242.0,8.2,86.6,20.5,2.9,0.5,62.2,16.8
CA,Modesto,381398.0,37.6374,-121.0028,48577.0,20.5,81.2,65.0,4.2,1.2,6.7,35.5
CA,Mojave,4222.0,35.0139,-118.1895,36250.0,31.1,72.6,56.2,15.1,1.3,1.3,37.6
CA,Montclair,39276.0,34.0714,-117.6981,49366.0,16.9,70.1,52.7,5.2,1.2,9.3,70.2
CA,Montebello,63192.0,34.0155,-118.1108,45875.0,14.0,71.7,53.8,0.9,1.0,11.0,79.3
CA,Monterey,28639.0,36.5922,-121.8807,60131.5,17.3,78.7,57.9,2.8,0.4,7.9,26.9
CA,Monterey Park,61044.0,34.0497,-118.1326,54097.0,51.65,39.35,38.65,6.6000000000000005,0.2,33.45,55.55
CA,Moreno Valley,207226.0,33.9244,-117.2045,54590.0,19.3,75.2,41.9,18.0,0.9,6.1,54.4
CA,Murrieta,483681.0,33.572,-117.1909,74610.0,8.4,92.2,69.7,5.4,0.7,9.2,25.9
CA,Muscoy,12968.0,34.1548,-117.3482,36108.0,33.5,44.9,41.9,4.3,1.2,0.9,82.9
CA,Napa,87032.0,38.2976,-122.3011,68038.0,9.5,80.9,75.1,0.6,0.8,2.3,37.6
CA,Napa Valley,4178.0,,,,,,,,,,
CA,Natomas,4178.0,,,,,,,,,,
CA,Needles,8807.0,34.8164,-114.6189,30443.0,27.7,82.1,75.7,2.0,8.2,0.7,22.4
CA,Newark,47531.0,37.5204,-122.0312,86757.0,7.9,87.7,41.3,4.7,0.7,27.2,35.2
CA,Newman,11360.0,37.3157,-121.0211,50225.0,19.8,76.0,66.6,2.3,1.0,1.9,61.6
CA,Newport Beach,86160.0,33.6151,-117.8669,113071.0,7.1,97.7,87.3,0.7,0.3,7.0,7.2
CA,Nice,2496.0,39.1266,-122.8525,28813.0,27.0,81.0,80.1,2.4,5.8,1.5,14.1
CA,Nipton,4178.0,,,,,,,,,,
CA,Norco,26761.0,33.9253,-117.55,88051.0,7.0,82.5,76.3,7.0,0.9,3.1,31.1
CA,North Hills,4178.0,,,,,,,,,,
CA,North Hollywood,4178.0,,,,,,,,,,
CA,Norwalk,106084.0,33.9069,-118.0829,59756.0,14.3,73.5,49.4,4.4,1.1,12.0,70.1
CA,Oak Park,14440.0,34.1849,-118.7669,120696.0,5.5,98.5,83.1,1.0,0.2,11.3,6.0
CA,Oak View,4472.0,34.399,-119.2976,71792.0,8.5,84.8,79.4,0.3,1.5,0.8,29.9
CA,Oakland,425195.0,37.7903,-122.2165,54618.0,20.4,80.4,34.5,28.0,0.8,16.8,25.4
CA,Oceanside,176193.0,33.2247,-117.3083,57703.0,14.1,85.7,65.2,4.7,0.8,6.6,35.9
CA,Olivehurst,13500.0,39.0817,-121.5549,44065.0,18.8,69.6,62.5,2.4,2.9,5.7,36.6
CA,Olympic Valley,4178.0,,,,,,,,,,
CA,Ono,4178.0,,,,,,,,,,
CA,Ontario,175841.0,34.0393,-117.6064,54114.0,18.1,70.6,51.0,6.4,1.0,5.2,69.0
CA,Orange,140560.0,33.8038,-117.8218,52675.5,33.1,62.75,55.25,1.2000000000000002,1.0499999999999998,6.2,65.4
CA,Orcutt,30001.0,34.8668,-120.4269,72597.0,6.1,92.0,81.9,1.4,1.2,3.9,23.8
CA,Orosi,7760.0,36.5434,-119.2903,34724.0,26.6,44.1,44.0,0.7,0.6,9.2,86.7
CA,Oroville,45655.0,39.4999,-121.5634,42091.5,18.4,84.69999999999999,78.85,2.2,4.75,5.8,10.5
CA,Oxnard,389792.0,34.1962,-119.1819,60621.0,16.6,65.6,48.2,2.9,1.5,7.4,73.5
CA,Pacific Beach,4178.0,,,,,,,,,,
CA,Palermo,5713.0,39.4313,-121.5226,39366.0,24.3,71.6,72.5,0.7,4.1,4.6,23.8
CA,Palm Desert,52932.0,33.7378,-116.3695,52892.0,10.8,91.3,82.5,1.8,0.5,3.4,22.8
CA,Palm Springs,48142.0,33.8017,-116.5382,44075.0,18.9,87.5,75.7,4.4,1.0,4.4,25.3
CA,Palmdale,157519.0,34.5944,-118.1057,52392.0,21.3,74.2,49.0,14.8,0.9,4.3,54.4
CA,Palo Alto,67178.0,37.3913,-122.1467,136519.0,5.4,97.4,64.2,1.9,0.2,27.1,6.2
CA,Panorama City,4178.0,,,,,,,,,,
CA,Paradise,35337.0,39.7558,-121.6063,49861.0,6.5,99.3,92.0,0.4,1.1,1.3,7.0
CA,Pasadena,142647.0,34.1597,-118.139,72402.0,15.3,87.4,55.8,10.7,0.6,14.3,33.7
CA,Paso Robles,4178.0,,,,,,,,,,
CA,Perris,77879.0,33.7899,-117.2233,49325.0,25.3,63.6,42.3,12.1,0.9,3.6,71.8
CA,Pico Rivera,63522.0,33.9902,-118.0888,55752.0,13.7,68.2,59.4,1.0,1.4,2.6,91.2
CA,Pinion Hills,4178.0,,,,,,,,,,
CA,Pittsburg,72141.0,38.0185,-121.897,60777.0,17.9,79.5,36.5,17.7,0.8,15.6,42.4
CA,Pleasanton,83007.0,37.6663,-121.8805,124759.0,4.4,95.2,67.0,1.7,0.3,23.2,10.3
CA,Point Loma,4178.0,,,,,,,,,,
CA,Pomona,152939.0,34.0585,-117.7626,49186.0,22.1,67.5,48.0,7.3,1.2,8.5,70.5
CA,Porterville,76729.0,36.0644,-119.0338,38456.0,30.9,66.9,58.8,1.2,1.9,4.7,61.9
CA,Poway,50041.0,32.9872,-117.0201,95815.0,6.0,93.0,76.9,1.6,0.6,10.2,15.7
CA,Rancho Cordova,73563.0,38.574,-121.2523,52530.0,17.2,89.3,60.4,10.1,1.0,12.1,19.7
CA,Rancho Mirage,18306.0,33.7634,-116.4271,66086.0,11.0,95.5,88.7,1.5,0.5,3.8,11.4
CA,Rancho Santa Margarita,48793.0,33.6317,-117.5989,105328.0,4.0,95.2,78.2,1.9,0.4,9.1,18.6
CA,Rancho Tehama Reserve,2259.0,40.001,-122.4418,27039.0,43.2,72.6,79.5,1.4,3.5,1.4,14.4
CA,Red Bluff,18709.0,40.1735,-122.2413,31239.0,24.0,85.3,80.7,0.9,3.1,1.3,21.6
CA,Redding,120270.0,40.5698,-122.365,43341.0,18.8,90.6,85.8,1.2,2.3,3.4,8.7
CA,Redlands,71554.0,34.0511,-117.1712,65212.0,14.3,90.4,69.0,5.2,0.9,7.6,30.3
CA,Redondo Beach,67908.0,33.8574,-118.3766,105145.0,4.7,95.8,74.6,2.8,0.4,12.0,15.2
CA,Redwood City,86685.0,37.5026,-122.2252,84934.0,9.4,84.6,60.2,2.4,0.7,10.7,38.8
CA,Reseda,4178.0,,,,,,,,,,
CA,Rialto,103562.0,34.1175,-117.3894,50971.0,19.7,67.4,44.0,16.4,1.1,2.3,67.6
CA,Richmond,110040.0,37.9477,-122.339,55102.0,17.5,77.1,31.4,26.6,0.6,13.5,39.5
CA,Ripon,15677.0,37.7415,-121.1309,80734.0,9.8,90.6,79.7,1.5,0.9,4.2,22.2
CA,Riverbank,24740.0,37.7268,-120.9402,60017.0,12.1,75.8,65.9,2.1,1.2,3.4,52.1
CA,Riverside,2084749.0,33.9381,-117.3948,57196.0,18.8,78.5,56.5,7.0,1.1,7.4,49.0
CA,Rocklin,64838.0,38.8075,-121.2488,80177.0,8.6,95.8,82.6,1.5,0.7,7.2,11.5
CA,Rosamond,20024.0,34.8658,-118.2154,58265.0,18.7,79.9,62.2,8.1,1.2,3.6,34.3
CA,Rosemead,54554.0,34.0688,-118.0823,44906.0,19.3,66.2,21.1,0.5,0.7,60.7,33.8
CA,Roseville,135329.0,38.7691,-121.3178,75867.0,8.8,94.5,79.3,2.0,0.7,8.4,14.6
CA,Sacramento,1854698.0,38.5667,-121.4683,50739.0,22.0,83.4,45.0,14.6,1.1,18.3,26.9
CA,Salinas,193590.0,36.6884,-121.6317,49840.0,20.2,59.5,45.8,2.0,1.3,6.3,75.0
CA,San Bernardino,216995.0,34.1417,-117.2945,37047.0,33.4,68.2,45.6,15.0,1.3,4.0,60.0
CA,San Diego,3210314.0,32.8312,-117.1225,66116.0,15.4,87.3,58.9,6.7,0.6,15.9,28.8
CA,San Diego Country Estates CDP,1000.0,32.8312,-117.1225,100719.0,4.0,96.0,90.1,0.9,0.9,1.5,11.1
CA,San Diego County,4178.0,,,,,,,,,,
CA,San Fernando,24714.0,34.2886,-118.4363,55170.0,18.9,58.5,51.0,0.9,1.3,1.0,92.5
CA,San Francisco,3603761.0,37.7562,-122.443,81294.0,13.2,87.0,48.5,6.1,0.5,33.3,15.1
CA,San Gabriel,40514.0,34.0948,-118.099,51579.0,13.8,78.1,25.4,1.0,0.6,60.7,25.7
CA,San Jose,1821899.0,37.3021,-121.8489,84647.0,11.3,82.7,42.8,3.2,0.9,32.0,33.2
CA,San Leandro,90553.0,37.7071,-122.1601,62761.0,10.6,82.4,37.6,12.3,0.8,29.7,27.4
CA,San Marcos,96198.0,33.135,-117.1743,57822.0,16.0,81.4,63.5,2.3,0.7,9.0,36.6
CA,San Mateo,104748.0,37.5522,-122.3122,90208.0,7.6,88.0,57.8,2.4,0.5,18.9,26.6
CA,San Ysidro,4178.0,,,,,,,,,,
CA,Sand City,387.0,36.6189,-121.8478,40625.0,30.8,79.6,66.8,3.9,0.9,4.8,36.8
CA,Santa Ana,334136.0,33.7366,-117.8819,52253.0,22.1,54.8,45.9,1.5,1.0,10.5,78.2
CA,Santa Barbara,204034.0,34.4285,-119.7202,66107.0,13.9,84.1,75.1,1.6,1.0,3.5,38.0
CA,Santa Clara,127134.0,37.3646,-121.968,98914.0,8.4,91.9,45.0,2.7,0.5,37.7,19.4
CA,Santa Clarita,309378.0,34.4155,-118.4992,83554.0,9.3,89.0,70.9,3.2,0.6,8.5,29.5
CA,Santa Cruz,177556.0,36.9789,-122.0346,62164.0,23.8,92.8,74.5,1.8,0.7,7.7,19.4
CA,Santa Maria,140219.0,34.9333,-120.4432,50433.0,21.2,58.7,56.2,1.7,1.8,5.1,70.4
CA,Santa Monica,92306.0,34.0232,-118.4813,76580.0,11.3,95.3,77.6,3.9,0.4,9.0,13.1
CA,Santa Nella,1976.0,37.1014,-121.0153,28144.0,58.7,58.7,60.3,1.6,1.8,2.2,70.1
CA,Santa Paula,30747.0,34.3521,-119.0698,52824.0,18.0,64.3,63.0,0.5,1.6,0.7,79.5
CA,Santa Rosa,321908.0,38.4458,-122.7067,118677.5,9.0,91.0,79.05,1.5499999999999998,1.05,5.4,19.6
CA,Santee,58113.0,32.8554,-116.9851,76104.0,7.8,92.9,82.5,2.0,0.8,3.8,16.3
CA,Saratoga,30905.0,37.2684,-122.0263,169189.0,3.6,98.2,53.9,0.3,0.1,41.4,3.5
CA,Seaside,118110.0,36.6224,-121.8191,51704.0,18.7,75.8,48.4,8.4,1.1,9.7,43.4
CA,Selma,44626.0,36.5744,-119.6156,42948.0,24.3,62.0,55.4,1.2,2.1,4.6,77.6
CA,Shafter,20889.0,35.4794,-119.2013,40881.0,21.7,57.9,48.0,1.3,1.2,0.7,80.3
CA,Sherman Oaks,4178.0,,,,,,,,,,
CA,Siskiyou County,4178.0,,,,,,,,,,
CA,Smartsville,140.0,39.2053,-121.2928,25063.0,3.7,100.0,88.7,0.0,2.8,0.0,10.2
CA,Solvang,16741.0,34.5936,-120.1401,67484.0,11.1,92.8,82.5,0.7,1.1,1.4,29.2
CA,South El Monte,20987.0,34.0493,-118.0484,40938.0,20.5,49.9,50.4,0.5,1.2,11.0,84.9
CA,South Gate,95430.0,33.9448,-118.1926,43552.0,20.0,52.4,50.5,0.9,0.9,0.8,94.8
CA,South Lake Tahoe,29890.0,38.9393,-119.9828,39793.0,18.5,84.6,73.5,0.9,1.1,5.5,31.1
CA,South Los Angeles,4178.0,,,,,,,,,,
CA,Stanton,38528.0,33.8002,-117.9935,46801.0,21.8,68.0,44.5,2.2,1.1,23.1,50.8
CA,Stockton,394467.0,37.9766,-121.3111,44797.0,25.3,74.9,37.0,12.2,1.1,21.5,40.3
CA,Studio City,4178.0,,,,,,,,,,
CA,Sunnyvale,153656.0,37.3836,-122.0257,105401.0,7.5,91.4,43.0,2.0,0.5,40.9,18.9
CA,Sylmar,4178.0,,,,,,,,,,
CA,Tehachapi,14491.0,35.127,-118.475,41705.0,22.0,75.6,65.4,9.0,1.4,1.7,37.9
CA,Tehama County,4178.0,,,,,,,,,,
CA,Temecula,114327.0,33.4928,-117.1315,79925.0,7.0,91.4,70.8,4.1,1.1,9.8,24.7
CA,Thousand Oaks,218729.0,34.1914,-118.8755,100946.0,6.2,92.4,80.3,1.3,0.4,8.7,16.8
CA,Torrance,146758.0,33.8346,-118.3417,79549.0,7.0,93.5,51.1,2.7,0.4,34.5,16.1
CA,Tulare,63855.0,36.1996,-119.3401,46659.0,21.7,71.7,61.3,3.9,1.2,2.2,57.5
CA,Turlock,107208.0,37.5053,-120.8587,51401.0,17.5,81.2,69.8,1.7,0.9,5.6,36.4
CA,Tustin,80498.0,33.7309,-117.8106,71897.0,13.6,83.5,52.6,2.3,0.6,20.3,39.7
CA,Twentynine Palms,13664.0,34.1478,-116.0659,41582.0,17.9,89.9,71.6,8.2,1.3,3.9,20.8
CA,Union City,75343.0,37.603,-122.0187,85521.0,8.1,87.8,23.9,6.3,0.5,50.9,22.9
CA,University City,4178.0,,,,,,,,,,
CA,Vacaville,100801.0,38.359,-121.968,74001.0,10.7,88.4,66.3,10.3,0.9,6.1,22.9
CA,Valinda,25080.0,34.04,-117.9301,65849.0,12.5,66.2,48.5,1.9,1.1,11.9,78.8
CA,Vallejo,173844.0,38.1133,-122.2359,57028.0,18.3,87.4,32.8,22.1,0.7,24.9,22.6
CA,Valley View,4178.0,,,,,,,,,,
CA,Van Nuys,4178.0,,,,,,,,,,
CA,Venice,4178.0,,,,,,,,,,
CA,Victorville,346948.0,34.5277,-117.3536,45894.0,26.0,78.3,48.5,16.8,1.4,4.0,47.8
CA,Visalia,234573.0,36.3276,-119.3269,52157.0,21.3,82.7,64.5,2.1,1.4,5.4,46.0
CA,Vista,101568.0,33.1896,-117.2386,46411.5,20.700000000000003,66.7,60.8,1.7999999999999998,3.0,2.2,66.7
CA,Walnut Creek,69773.0,37.9025,-122.0398,82120.0,5.9,97.3,78.7,1.6,0.2,12.5,8.6
CA,Wasco,26935.0,35.5938,-119.3671,39580.0,32.7,51.1,49.2,7.6,1.1,0.7,76.7
CA,Watsonsville,4178.0,,,,,,,,,,
CA,Watsonville,77700.0,36.9206,-121.7706,46018.0,19.7,56.3,43.7,0.7,1.2,3.3,81.4
CA,Weitchpec,4178.0,,,,,,,,,,
CA,West Covina,107598.0,34.0555,-117.9112,69189.0,10.3,83.1,42.8,4.5,1.0,25.8,53.2
CA,West Goshen,618.0,36.349,-119.4516,20700.0,76.4,49.1,54.0,0.4,2.0,1.4,70.1
CA,Westminster,91564.0,33.7523,-117.9938,53455.0,17.8,76.4,35.7,0.9,0.4,47.5,23.6
CA,Whittier,86838.0,33.9678,-118.0188,66457.0,12.5,83.3,64.6,1.3,1.3,3.8,65.7
CA,Willits,8031.0,39.4047,-123.3494,30678.0,30.7,84.3,79.0,0.7,4.4,1.4,20.6
CA,Wilmington,4178.0,,,,,,,,,,
CA,Winchester,2721.0,33.7146,-117.0775,58103.0,14.1,73.6,62.2,1.5,0.7,1.8,48.7
CA,Windsor,27548.0,38.5418,-122.8086,85291.0,4.1,86.8,73.9,0.8,2.2,3.0,31.8
CA,Woodville,1770.0,36.0898,-119.205,32917.0,51.8,27.2,77.3,0.1,1.8,0.3,88.8
CA,Yorba Linda,68229.0,33.889,-117.7713,117855.0,3.6,95.5,75.1,1.3,0.4,15.6,14.4
CA,Yreka,7437.0,41.7292,-122.6311,28333.0,34.3,84.4,83.6,0.7,6.3,1.2,9.7
CA,Yuba City,120186.0,39.1357,-121.6381,50649.0,18.5,78.3,57.6,2.5,1.4,17.2,28.4
CA,Yucca Valley,25009.0,34.1234,-116.4216,40030.0,21.0,85.5,83.5,3.2,1.1,2.3,17.8
CO,Adams County,4178.0,,,,,,,,,,
CO,Alamosa,10963.0,37.4755,-105.877,38525.0,31.75,84.4,71.25,0.95,2.85,1.05,53.650000000000006
CO,Arvada,118807.0,39.8321,-105.1511,69938.0,8.4,94.2,89.8,0.9,0.8,2.2,13.7
CO,Aurora,366623.0,39.7084,-104.7274,53011.0,15.3,86.5,61.1,15.7,1.0,4.9,28.7
CO,Avon,6541.0,39.6445,-106.5133,48022.0,12.8,91.0,76.3,1.8,0.5,1.1,49.0
CO,Bailey,4178.0,,,,,,,,,,
CO,Boulder,126054.0,40.0249,-105.2523,58484.0,23.1,96.3,88.0,0.9,0.4,4.7,8.7
CO,Brandon,27.0,38.4464,-102.4412,,0.0,55.6,100.0,0.0,0.0,0.0,0.0
CO,Brighton,40562.0,39.9716,-104.7964,61051.0,9.9,82.5,77.4,1.5,1.4,1.3,40.5
CO,Broomfield,68341.0,39.9541,-105.0527,81898.0,6.5,95.7,86.1,1.1,0.6,6.1,11.1
CO,Ca√±on City,4178.0,,,,,,,,,,
CO,Centennial,110250.0,39.5926,-104.8674,91941.0,5.0,97.6,87.3,3.3,0.4,4.4,7.4
CO,Clear Creek Canyon,4178.0,,,,,,,,,,
CO,Colorado City,2316.0,37.9365,-104.8459,52697.0,21.5,100.0,92.8,0.9,1.5,0.2,13.8
CO,Colorado Springs,623946.0,38.8674,-104.7606,54527.0,13.4,93.1,78.8,6.3,1.0,3.0,16.1
CO,Commerce City,55923.0,39.8643,-104.8433,66053.0,15.6,80.1,69.1,3.1,1.5,2.2,46.8
CO,Denver,2787266.0,39.7621,-104.8759,53637.0,17.3,86.1,68.9,10.2,1.4,3.4,31.8
CO,Dinosaur,325.0,40.2405,-109.0086,42083.0,18.5,78.3,95.0,0.6,2.9,0.3,8.0
CO,Durango,19662.0,37.2744,-107.8703,57024.0,13.2,95.9,85.1,0.6,6.3,0.8,12.3
CO,Eldorado Springs,750.0,39.9367,-105.2625,119115.0,4.7,100.0,92.5,0.3,0.9,1.9,4.1
CO,Englewood,34407.0,39.6468,-104.9942,47046.0,16.5,88.1,84.4,2.2,1.4,1.9,18.1
CO,Evans,20470.0,40.366,-104.7389,47791.0,16.6,76.3,76.5,0.9,1.2,0.9,43.1
CO,Federal Heights,12744.0,39.8651,-105.0154,36800.0,19.0,72.9,71.3,1.3,1.6,4.6,47.6
CO,Fort Collins,303184.0,40.5475,-105.0651,55647.0,18.6,96.0,89.0,1.2,0.6,2.9,10.1
CO,Fort Lupton,10019.0,40.0841,-104.8021,50191.0,13.5,75.1,72.1,0.6,1.6,0.9,55.0
CO,Fort Morgan,13137.0,40.2539,-103.7919,45403.0,13.6,73.8,70.3,6.1,0.9,0.7,43.3
CO,Fountain,29804.0,38.6888,-104.6829,57057.0,8.6,95.5,71.9,10.0,1.6,2.4,19.4
CO,Friendly Hills,4178.0,,,,,,,,,,
CO,Fruita,13294.0,39.154,-108.7286,55864.0,13.8,90.3,90.6,0.5,0.9,0.7,12.0
CO,Glenwood Springs,12000.0,39.5455,-107.3347,49538.0,15.4,85.2,81.4,1.2,1.0,0.8,31.5
CO,Golden,20571.0,39.7406,-105.2118,58998.0,16.8,93.9,90.6,1.2,0.6,3.8,8.2
CO,Grand Junction,136688.0,39.0877,-108.5673,45358.0,18.9,91.3,88.7,0.8,1.0,1.1,13.9
CO,Greeley,133750.0,40.4151,-104.7705,48813.0,20.2,83.6,79.1,1.7,1.2,1.3,36.0
CO,Gunnison County,4178.0,,,,,,,,,,
CO,Hanover,4178.0,,,,,,,,,,
CO,Highlands Ranch,105264.0,39.5419,-104.9708,108570.0,3.6,98.4,88.7,1.2,0.4,5.6,7.2
CO,Idaho Springs,1782.0,39.7445,-105.5,46480.0,19.1,93.7,95.0,0.4,0.8,0.5,6.0
CO,LaSalle,4178.0,,,,,,,,,,
CO,Lakewood,154958.0,39.6977,-105.1168,56954.0,11.9,91.5,82.9,1.6,1.4,3.1,22.0
CO,Larimer County,4178.0,,,,,,,,,,
CO,Lone Tree,13566.0,39.5309,-104.871,110150.0,4.2,97.9,87.2,1.6,0.3,7.2,6.2
CO,Longmont,99398.0,40.169,-105.0996,62208.0,14.1,87.3,83.3,0.9,1.0,3.2,24.6
CO,Loveland,76701.0,40.4167,-105.0622,56277.0,9.1,94.1,91.5,0.6,0.8,1.0,11.7
CO,Montrose County,4178.0,,,,,,,,,,
CO,Monument,7380.0,39.0736,-104.8468,93341.0,4.2,95.2,89.0,1.7,0.6,2.6,8.3
CO,Mountain View,537.0,39.7748,-105.0567,45714.0,10.7,82.2,80.1,0.4,2.4,0.6,28.4
CO,New Castle,5807.0,39.5785,-107.5262,66818.0,12.1,89.2,83.3,0.7,1.5,0.9,28.4
CO,North Fort Collins,4178.0,,,,,,,,,,
CO,Northglenn,38928.0,39.9107,-104.9783,55831.0,14.0,86.6,76.6,2.3,1.3,3.7,30.6
CO,Orchard Mesa,6380.0,39.0363,-108.5172,46701.0,17.9,91.5,90.5,0.5,1.5,0.5,12.2
CO,Park County,4178.0,,,,,,,,,,
CO,Parker,54202.0,39.5084,-104.7755,100469.0,4.2,98.0,90.1,1.5,0.5,3.2,8.2
CO,Pleasant View,4178.0,,,,,,,,,,
CO,Pueblo,142351.0,38.2713,-104.6105,50115.5,16.15,89.94999999999999,81.25,1.9,1.7000000000000002,0.9,36.349999999999994
CO,Rangley,4178.0,,,,,,,,,,
CO,Rifle,11038.0,39.5362,-107.772,54175.0,14.5,84.3,81.0,0.5,1.3,0.6,30.4
CO,Sedalia,161.0,39.4396,-104.9698,66094.0,22.1,100.0,91.7,2.4,1.0,0.0,10.7
CO,Springfield,1370.0,37.4049,-102.6189,33029.0,26.5,86.6,93.2,1.1,1.0,0.1,9.4
CO,Sterling,15199.0,40.6207,-103.1919,35732.0,21.4,83.7,85.0,5.9,1.6,0.7,20.9
CO,Strasburg,2888.0,39.7181,-104.3195,76875.0,4.7,92.9,93.6,0.9,0.9,0.6,6.7
CO,Thornton,136978.0,39.9205,-104.9443,66948.0,8.9,87.5,77.4,1.8,1.1,4.4,31.7
CO,Trinidad,8148.0,37.175,-104.4908,43819.0,16.9,84.1,81.5,0.9,2.6,0.9,50.0
CO,Valdez,12.0,37.1239,-104.6794,,0.0,78.6,76.6,0.0,2.1,0.0,61.7
CO,Watkins,643.0,39.6971,-104.5787,115250.0,0.0,93.8,90.2,1.8,0.5,1.2,9.6
CO,Westminister,4178.0,,,,,,,,,,
CO,Westminster,112812.0,39.8837,-105.0624,67081.0,9.0,91.0,82.0,1.4,0.9,5.4,20.7
CT,Ansonia,18813.0,41.3443,-73.0689,43305.0,19.0,87.5,77.6,11.6,0.3,1.9,16.7
CT,Bolton,4884.0,,,,,,,,,,
CT,Bridgeport,938406.0,41.1918,-73.1953,41801.0,22.9,75.6,39.6,34.6,0.5,3.4,38.2
CT,Danbury,177177.0,41.4016,-73.471,66676.0,12.0,82.5,68.2,7.2,0.4,6.8,25.0
CT,East Hartford,49872.0,,,48369.0,15.4,84.0,51.3,26.0,0.4,5.7,25.8
CT,Fairfield,62045.0,,,,,,,,,,
CT,Hartford,914751.0,41.7661,-72.6834,30630.0,33.4,70.6,29.8,38.7,0.6,2.8,43.4
CT,Manchester,57584.0,,,54958.0,14.0,91.9,72.3,13.6,0.4,4.2,14.7
CT,Mashantucket,235.0,41.4644,-71.9745,84583.0,0.6,91.5,16.1,6.0,50.5,0.0,12.7
CT,New Britain,72710.0,41.6758,-72.7862,40457.0,23.3,80.8,63.6,13.0,0.4,2.4,36.8
CT,New Milford,26805.0,,,50820.0,12.5,84.8,88.7,2.6,0.4,3.1,8.6
CT,Norwich,203916.0,41.5495,-72.0882,50078.0,15.7,85.3,69.5,10.4,1.2,7.7,12.6
CT,Oakdale,4178.0,,,,,,,,,,
CT,Old Saybrook,10061.0,,,62969.0,3.7,96.7,92.7,1.1,0.0,3.9,4.9
CT,Stamford,130824.0,41.1035,-73.5583,79359.0,9.4,89.0,65.0,13.9,0.3,7.9,23.8
CT,Suffield,15814.0,,,65366.0,9.1,97.3,92.9,2.2,0.2,1.7,2.3
CT,Thomaston,7535.0,,,42423.0,10.8,86.3,95.3,0.5,0.4,0.5,4.5
CT,Waterbury,191484.0,41.5583,-73.0361,40467.0,25.1,79.1,58.8,20.1,0.6,1.8,31.2
CT,West Haven,54843.0,41.2739,-72.9672,50846.0,14.4,86.5,65.7,19.6,0.3,3.7,18.3
CT,Wethersfield,26008.0,,,77195.0,4.7,90.6,89.5,3.1,0.1,2.9,8.2
DC,Washington,5289420.0,38.9047,-77.0163,70848.0,18.0,89.3,38.5,50.7,0.3,3.5,9.1
DE,Claymont,8707.0,39.8032,-75.4606,47525.0,12.1,87.6,64.0,27.0,0.3,3.8,7.1
DE,Dover,115352.0,39.161,-75.5203,44765.0,15.65,92.05,60.15,27.75,0.35,2.5,10.45
DE,Frederica,824.0,39.008,-75.4667,58000.0,15.5,81.5,68.0,19.4,0.0,0.9,12.7
DE,Lewes,27087.0,38.7781,-75.1454,56058.0,7.9,91.4,89.8,7.7,0.4,0.4,1.7
DE,Middletown,34132.0,39.4453,-75.7166,84451.0,5.4,93.3,61.9,28.4,0.2,3.8,7.4
DE,Milford,20864.0,38.9091,-75.4224,45368.0,17.0,85.8,65.0,22.3,0.5,1.2,15.8
DE,New Castle,5348.0,39.6685,-75.5692,56307.0,13.7,88.8,67.3,27.2,0.3,1.2,5.4
DE,Smyrna,11584.0,39.2922,-75.6076,54217.0,7.6,89.9,63.1,29.1,0.3,1.5,5.9
DE,Wilmington,71106.0,39.7415,-75.5413,46580.0,17.8,83.7,50.599999999999994,36.75,0.45,1.05,16.05
FL,Amelia Island,4178.0,,,,,,,,,,
FL,Apopka,51564.0,28.7013,-81.5303,58885.0,14.6,86.6,64.3,20.7,0.3,3.2,25.4
FL,Auburndale,15973.0,28.0962,-81.8011,41827.0,17.6,81.1,80.0,12.8,0.4,1.2,13.1
FL,Barberville,4178.0,,,,,,,,,,
FL,Bascom,117.0,30.9278,-85.1181,,20.2,86.7,86.8,9.9,0.0,0.0,3.3
FL,Belle Glade,27999.0,26.6919,-80.6672,30303.0,35.9,63.6,31.1,56.3,0.2,0.5,34.2
FL,Beverly Hills,9144.0,28.9175,-82.4541,27526.0,30.2,85.7,90.7,3.5,0.4,1.2,8.0
FL,Boynton Beach,77702.0,26.5281,-80.0811,46178.0,16.8,86.8,62.4,30.3,0.3,2.2,12.8
FL,Boyton Beach,4178.0,,,,,,,,,,
FL,Bradenton,56508.0,27.49,-82.574,37328.0,15.600000000000001,88.6,84.55,8.7,0.4,1.0,9.85
FL,Brooksville,8147.0,28.5405,-82.3903,30392.0,27.3,82.2,76.9,18.0,0.4,0.9,6.6
FL,Bruce,4178.0,,,,,,,,,,
FL,Bushnell,4497.0,28.6856,-82.1159,30067.0,27.9,79.0,81.4,12.7,0.9,0.5,8.1
FL,Callahan,1342.0,30.5619,-81.832,25641.0,27.6,81.2,89.3,7.0,0.3,0.9,2.4
FL,Cantonment,4178.0,,,,,,,,,,
FL,Cape Canaveral,10413.0,28.3933,-80.605,44802.0,13.4,93.4,92.9,2.4,0.3,1.8,5.7
FL,Cape Coral,630134.0,26.6445,-81.9955,50536.0,14.2,90.4,88.2,4.3,0.3,1.5,19.5
FL,Carollwood,4178.0,,,,,,,,,,
FL,Casselberry,28395.0,28.6625,-81.3218,40510.0,16.0,91.8,80.1,8.0,0.4,2.9,22.6
FL,Citra,4178.0,,,,,,,,,,
FL,Clearwater,115513.0,27.9788,-82.7624,44198.0,16.0,89.3,79.8,10.9,0.5,2.1,14.2
FL,Clermont,35211.0,28.5403,-81.7296,51938.0,14.1,92.3,71.7,14.4,0.4,4.2,17.8
FL,Cocoa,18532.0,28.382,-80.7674,30517.0,29.3,83.1,59.2,31.3,0.5,1.1,10.3
FL,Cocoa Beach,11733.0,28.3326,-80.6274,53844.0,7.4,96.3,95.6,0.8,0.4,1.5,3.2
FL,Coleman,852.0,28.8013,-82.0699,32026.0,12.7,75.9,57.2,38.7,0.9,0.6,4.7
FL,Coral Springs,133037.0,26.2702,-80.2591,66430.0,10.3,92.3,69.2,17.9,0.2,5.1,23.5
FL,Crescent City,2753.0,29.4375,-81.5173,26202.0,37.0,71.0,58.4,30.8,0.5,0.4,17.7
FL,Crystal Springs,969.0,28.183,-82.1539,27250.0,25.1,66.0,90.8,0.9,0.5,1.2,8.6
FL,Dade City,7134.0,28.3568,-82.1941,29633.5,26.650000000000002,74.6,58.25,16.15,0.6000000000000001,0.25,41.8
FL,Davie,105149.0,26.0789,-80.287,59680.0,12.6,90.6,80.1,8.0,0.3,4.6,29.1
FL,Daytona Beach,68055.0,29.1994,-81.0982,34623.0,21.6,90.8,76.15,18.099999999999998,0.30000000000000004,2.25,4.4
FL,DeLand,32506.0,29.0224,-81.2873,29728.0,31.75,80.30000000000001,47.35,43.349999999999994,0.65,1.0999999999999999,13.45
FL,Deland,4178.0,,,29728.0,31.75,80.30000000000001,47.35,43.349999999999994,0.65,1.0999999999999999,13.45
FL,Delray Beach,68749.0,26.455,-80.0905,50136.0,17.8,85.5,65.7,28.0,0.2,1.8,9.5
FL,Deltona,194061.0,28.905,-81.2136,42077.0,16.4,88.2,76.7,10.9,0.5,1.3,30.2
FL,Dundee,4497.0,28.0115,-81.5995,40131.0,28.6,80.3,60.6,25.2,0.6,1.7,21.3
FL,Edgewater,22399.0,28.962,-80.9415,44155.0,12.6,90.1,94.1,2.6,0.3,0.9,3.4
FL,Elkton,4178.0,,,,,,,,,,
FL,Englewood,15169.0,26.9603,-82.3535,42500.0,10.5,91.4,97.1,0.3,0.2,0.7,2.5
FL,Eustis,20827.0,28.856,-81.6781,35265.0,25.3,86.3,74.9,17.4,0.4,1.2,11.9
FL,Floral City,5188.0,28.7065,-82.309,32326.0,13.6,83.9,96.2,1.3,0.5,0.3,3.2
FL,Florida City,12155.0,25.4418,-80.4685,25840.0,48.7,54.6,39.1,52.4,0.2,0.3,42.4
FL,Fort Lauderdale,180072.0,26.1412,-80.1464,50778.0,20.7,85.9,62.6,31.0,0.3,1.5,13.7
FL,Fort Myers,79943.0,26.6195,-81.8303,44448.0,11.8,80.3,84.4,4.7,0.3,1.3,20.0
FL,Fort Pierce,45581.0,27.4256,-80.343,25635.0,36.6,73.9,45.3,40.9,0.5,0.8,21.6
FL,Fort Walton Beach,21895.0,30.4249,-86.6193,47149.0,17.5,89.2,77.7,12.3,0.7,3.2,7.9
FL,Fountain,4178.0,,,,,,,,,,
FL,Fruitland Park,8181.0,28.8601,-81.9191,39625.0,17.3,85.0,84.7,9.4,0.2,1.5,7.7
FL,Ft. Lauderdale,4178.0,,,,,,,,,,
FL,Gainesville,199695.0,29.6804,-82.3458,31818.0,35.6,92.1,64.9,23.0,0.3,6.9,10.0
FL,Gifford,9683.0,27.6747,-80.4102,30407.0,30.7,82.5,49.7,43.7,0.3,0.6,8.5
FL,Grant-Valkaria,4207.0,27.9322,-80.5655,59038.0,6.6,95.2,91.4,3.9,0.5,1.6,4.6
FL,Hallandale Beach,39831.0,25.9854,-80.1423,34216.0,22.1,85.8,73.7,18.7,0.2,1.4,31.8
FL,Hernando,8254.0,28.9451,-82.3781,39130.0,23.0,90.5,95.9,1.4500000000000002,0.4,0.45,3.9
FL,Hialeah,239673.0,25.8696,-80.3046,35420.5,22.6,73.30000000000001,92.75,2.45,0.1,0.55,94.80000000000001
FL,Hog Valley,4178.0,,,,,,,,,,
FL,Holiday,20745.0,28.1864,-82.7429,32129.0,21.1,83.7,89.5,4.1,0.5,1.4,10.0
FL,Hollywood,153627.0,26.0294,-80.1679,46791.0,15.9,86.9,72.7,16.7,0.4,2.4,32.6
FL,Homestead,69907.0,25.4665,-80.4472,26246.0,63.699999999999996,70.0,53.75,37.9,0.35,0.7,48.3
FL,Immokalee,25686.0,26.4253,-81.4251,26684.0,43.9,41.3,43.2,18.9,1.0,0.2,75.6
FL,Indialantic,2894.0,28.087,-80.57,65305.0,12.9,97.3,94.7,0.5,0.2,1.7,5.3
FL,Indian River County,4178.0,,,,,,,,,,
FL,Indiantown,5722.0,27.0375,-80.4913,36098.0,25.3,55.9,48.9,14.6,3.4,0.2,64.6
FL,Jacksonsville,4178.0,,,,,,,,,,
FL,Jacksonville,1156291.0,30.3322,-81.6749,54496.5,13.2,92.2,75.15,17.3,0.30000000000000004,3.0,6.0
FL,Jupiter,64976.0,26.9199,-80.1128,86435.0,7.449999999999999,95.5,94.6,1.35,0.2,1.5,7.75
FL,Kendale Lakes,59812.0,25.7081,-80.4078,48818.0,13.8,84.2,92.1,2.2,0.1,1.4,86.5
FL,Lady Lake,15317.0,28.924,-81.93,39185.0,14.2,89.0,90.8,5.1,0.4,1.1,4.3
FL,Lake Asbury,4178.0,,,,,,,,,,
FL,Lake Mary,16474.0,28.7592,-81.336,80425.0,4.95,95.44999999999999,88.75,3.65,0.44999999999999996,3.75,10.45
FL,Lake Wales,16066.0,27.9195,-81.5961,36296.0,28.9,77.8,65.0,27.5,0.5,0.8,15.6
FL,Lakeland,291281.0,28.0557,-81.9545,60940.5,11.5,90.9,81.19999999999999,12.149999999999999,0.25,1.9500000000000002,10.25
FL,Lakes Wales,4178.0,,,,,,,,,,
FL,Lantana,11824.0,26.5834,-80.0564,44786.0,24.0,81.2,69.3,22.0,0.4,1.5,18.6
FL,Largo,84754.0,27.9088,-82.7712,39468.0,16.2,88.0,86.3,5.6,0.3,2.7,9.0
FL,Lauderdale Lakes,36069.0,26.1682,-80.2017,31497.0,25.8,75.5,14.2,80.6,0.2,1.2,5.4
FL,Lauderhill,71970.0,26.1605,-80.2242,37429.0,23.1,83.3,18.2,75.9,0.3,1.6,7.4
FL,Lawtey,723.0,30.0484,-82.0724,30769.0,29.1,75.5,60.7,35.9,0.4,0.4,2.1
FL,Lealman,20755.0,27.8197,-82.6847,30304.0,29.1,77.5,78.6,8.5,0.5,6.9,9.5
FL,Leesburg,148161.0,28.7658,-81.8995,34305.0,22.3,83.7,63.5,28.2,0.3,1.7,9.0
FL,Lehigh Acres,116849.0,26.612,-81.6388,40226.0,21.8,77.6,67.5,19.3,0.4,1.2,34.3
FL,Little Havana,4178.0,,,,,,,,,,
FL,Loxahatchee,4178.0,,,69394.0,7.9,84.6,87.2,3.3,1.4,1.6,18.7
FL,Manatee,4178.0,,,34542.0,27.9,79.2,95.0,1.5,0.4,0.4,3.4
FL,Mandarin,4178.0,,,,,,,,,,
FL,Mascotte,5616.0,28.611,-81.9106,44722.0,14.6,69.7,60.4,11.8,0.9,1.5,47.3
FL,Melbourne,82011.0,28.1085,-80.6627,65000.0,7.7,93.1,96.7,0.5,0.3,1.7,3.3
FL,Mexico Beach,1198.0,29.948,-85.4157,53553.0,13.5,92.4,93.1,1.9,0.4,0.7,2.6
FL,Miami,6381966.0,25.7839,-80.2102,49015.0,15.0,86.05000000000001,80.0,11.8,0.25,1.35,61.5
FL,Miami Beach,92307.0,25.8171,-80.1396,44342.0,17.7,87.2,87.4,4.4,0.3,1.9,53.0
FL,Miami Gardens,113750.0,25.9433,-80.2426,38253.0,23.1,80.3,18.3,76.3,0.2,0.6,22.0
FL,Miami-Dade,4178.0,,,,,,,,,,
FL,Micanopy,631.0,29.506,-82.2806,36652.0,12.7,87.6,74.2,22.2,1.3,0.2,2.8
FL,Middleburg,13316.0,30.0502,-81.9011,48430.0,16.8,83.5,92.9,3.1,0.6,0.7,4.1
FL,Midway,3326.0,30.4992,-84.4582,49444.0,15.2,90.5,10.3,84.9,0.2,0.9,4.6
FL,Milton,9986.0,30.6286,-87.0522,46040.0,15.0,90.8,77.4,13.9,0.7,2.2,4.8
FL,Miramar,140328.0,25.9773,-80.3351,57745.0,7.75,92.9,67.4,23.400000000000002,0.25,3.5,20.65
FL,Mulberry,4118.0,27.9058,-81.9873,33708.0,20.6,80.1,79.5,14.6,0.3,0.5,12.8
FL,Naples,21948.0,26.1505,-81.7936,49022.0,12.4,88.5,88.5,4.2,0.2,0.6,22.6
FL,Navarre,34085.0,30.4174,-86.8907,75074.0,6.0,96.9,88.55000000000001,3.55,0.5,2.45,5.85
FL,Niceville,15249.0,30.529,-86.4753,58954.0,14.0,94.4,87.2,4.2,0.6,3.2,4.7
FL,Nokomis,3376.0,27.1227,-82.437,38545.0,18.7,89.3,95.9,0.9,0.3,1.2,4.4
FL,Noma,206.0,30.9802,-85.6223,30750.0,29.8,70.1,77.7,21.3,0.0,0.0,0.0
FL,North Escambia,4178.0,,,,,,,,,,
FL,North Fort Myers,40916.0,26.7243,-81.8491,38617.0,13.3,87.7,94.7,1.5,0.4,0.6,6.2
FL,North Miami Beach,44124.0,25.9302,-80.166,38387.0,23.2,80.1,47.1,41.4,0.2,3.4,36.6
FL,North Port,195992.0,27.0577,-82.1975,52571.0,12.8,90.5,87.6,7.0,0.3,1.2,8.7
FL,Oakland Park,45035.0,26.178,-80.1528,45357.0,20.2,82.8,62.6,25.6,0.3,2.0,25.6
FL,Ocala,164712.0,29.178,-82.1511,35924.0,22.6,86.1,70.7,20.9,0.3,2.6,11.7
FL,Old Town,4178.0,,,,,,,,,,
FL,Olustee,4178.0,,,,,,,,,,
FL,Opa-Locka,4178.0,,,18134.0,44.8,69.3,27.7,65.8,0.2,0.2,35.3
FL,Orange City,11697.0,28.9349,-81.2882,32788.0,21.7,87.6,85.7,6.5,0.4,1.5,16.9
FL,Orange County,4178.0,,,,,,,,,,
FL,Orange Park,8705.0,30.1706,-81.7041,47548.0,8.7,92.6,75.9,14.8,0.3,3.2,8.8
FL,Orlando,1776841.0,28.4772,-81.3369,42318.0,20.2,89.5,57.6,28.1,0.4,3.8,25.4
FL,Ormond Beach,42816.0,29.296,-81.1003,46567.0,12.1,93.9,92.2,3.2,0.2,2.3,4.1
FL,Osteen,4178.0,,,,,,,,,,
FL,Palatka,23597.0,29.6493,-81.6704,20837.0,43.2,77.8,46.3,49.8,0.3,0.6,4.6
FL,Palm Bay,489912.0,27.955,-80.6628,43163.0,17.6,87.6,72.9,17.9,0.5,1.8,14.1
FL,Palm Beach Gardens,55036.0,26.8486,-80.166,68802.0,6.5,94.9,89.3,4.4,0.2,3.1,8.9
FL,Palm Harbor,61553.0,28.0847,-82.7481,53281.0,8.4,95.5,93.5,2.0,0.2,1.6,5.9
FL,Palmetto,13661.0,27.5251,-82.5751,51588.0,16.6,84.8,72.1,10.5,0.1,3.3,38.6
FL,Panama City,145239.0,30.1995,-85.6003,45798.0,14.5,90.05000000000001,80.55,12.15,0.55,2.1500000000000004,5.449999999999999
FL,Panama City Beach,12757.0,30.2369,-85.8774,54406.0,7.8,92.9,89.5,2.3,0.6,2.7,5.8
FL,Pensacola,344400.0,30.4427,-87.1886,45527.0,15.7,91.7,66.3,28.0,0.6,2.0,3.3
FL,Pinellas Park,52854.0,27.8589,-82.7076,41494.0,14.5,86.4,81.7,4.7,0.3,7.3,10.7
FL,Plant City,38714.0,28.014,-82.1201,45083.0,17.0,81.0,69.5,15.1,0.6,1.4,28.8
FL,Plantation,93909.0,26.126,-80.2617,50236.5,21.2,89.1,84.05000000000001,7.8,0.4,1.0,11.75
FL,Poinciana,66465.0,28.1217,-81.482,39839.0,23.9,84.9,56.4,24.5,0.7,1.8,51.2
FL,Pompano Beach,110473.0,26.2428,-80.1312,41321.0,23.4,82.8,62.6,28.9,0.3,1.3,17.5
FL,Port Charlotte,59654.0,26.9918,-82.114,38896.0,14.5,87.1,84.8,9.3,0.3,1.6,8.7
FL,Port Orange,63203.0,29.1084,-81.0137,43353.0,14.3,89.6,91.3,3.3,0.3,2.2,4.5
FL,Port Richey,2831.0,28.2758,-82.725,39028.0,15.1,86.6,92.5,1.7,0.7,1.7,6.0
FL,Port St. Joe,3770.0,29.8267,-85.3069,41402.0,8.9,92.2,71.5,25.8,0.4,0.3,2.6
FL,Port St. Lucie,432589.0,27.2796,-80.3884,49813.0,15.0,87.2,74.3,16.3,0.4,2.0,18.4
FL,Putnam Hall,4178.0,,,,,,,,,,
FL,Quincy,8791.0,30.5659,-84.5857,33331.0,27.7,75.7,23.4,64.4,0.6,0.7,13.9
FL,Riverview,88191.0,27.8227,-82.3023,66497.0,9.5,91.9,70.2,17.0,0.4,3.1,21.0
FL,Rockledge,27476.0,28.3201,-80.732,57346.0,9.0,91.5,78.7,14.5,0.3,2.4,6.4
FL,Ruskin,22162.0,27.7065,-82.4209,47592.0,18.9,79.2,71.7,9.1,0.3,1.3,42.9
FL,Safety Harbor,17844.0,28.008,-82.6965,60056.0,9.3,93.0,89.7,4.5,0.2,2.6,5.8
FL,San Carlos Park,17597.0,26.4765,-81.8193,48593.0,15.7,83.8,86.4,2.9,0.4,1.4,24.0
FL,Sarasaota,4178.0,,,,,,,,,,
FL,Sarasota,706245.0,27.3386,-82.543,47287.0,15.05,89.55,84.05000000000001,8.5,0.35,1.15,13.75
FL,Sebring,62814.0,27.477,-81.453,25663.0,30.2,77.0,76.0,14.7,0.7,1.4,17.6
FL,Seville,646.0,29.3364,-81.5065,32933.0,61.3,72.0,56.8,24.1,1.1,0.3,26.9
FL,Sneads,1796.0,30.7085,-84.9249,31607.0,30.3,79.0,78.0,18.5,0.2,0.4,2.7
FL,Spring Hill,104722.0,28.4797,-82.53,41308.0,15.6,87.5,88.1,5.1,0.4,1.4,13.6
FL,Springfield,9437.0,30.1713,-85.6089,34167.0,26.2,78.3,66.0,23.8,0.7,3.8,5.8
FL,St. Augustine,75932.0,29.8977,-81.31,51516.0,8.5,92.30000000000001,94.75,1.7,0.25,1.2,4.699999999999999
FL,St. Cloud,51282.0,28.2294,-81.2829,50467.0,15.1,87.3,82.4,5.8,0.4,1.7,29.2
FL,St. Petersburg,263255.0,27.793,-82.6652,45748.0,17.2,89.5,68.7,23.9,0.3,3.2,6.6
FL,Starke,5593.0,29.9474,-82.1129,32500.0,22.1,78.6,65.8,29.2,0.3,1.1,3.8
FL,Sunrise,94323.0,26.1547,-80.2997,49806.0,13.1,88.1,56.4,31.8,0.3,4.1,25.6
FL,Tallahassee,253030.0,30.4551,-84.2527,39681.0,29.7,92.5,57.4,35.0,0.2,3.7,6.3
FL,Tamarac,65669.0,26.2057,-80.2549,43235.0,11.8,90.0,67.2,23.1,0.2,2.5,24.3
FL,Tampa,2804240.0,27.9942,-82.4451,44185.0,21.8,86.6,62.9,26.2,0.4,3.4,23.1
FL,Tarpon Springs,25331.0,28.1493,-82.7623,45104.0,14.0,88.8,88.1,6.4,0.3,1.4,7.3
FL,Temple Terrace,26489.0,28.0437,-82.3774,51984.0,17.7,93.4,68.0,19.5,0.4,5.5,14.7
FL,The Villages,74618.0,28.9021,-81.9888,56672.0,4.8,95.4,98.2,0.6,0.1,0.7,1.5
FL,Thonotosassa,13743.0,28.0464,-82.291,41739.0,21.5,83.6,76.7,15.6,0.5,1.7,11.8
FL,Titusville,57497.0,28.5727,-80.8193,40830.0,18.8,90.2,80.8,13.5,0.5,1.4,6.5
FL,Vero Beach,16919.0,27.6463,-80.393,42025.0,16.7,88.45,88.2,5.05,0.35,1.7000000000000002,10.1
FL,Viera,4178.0,,,76187.0,5.300000000000001,96.05,86.55000000000001,5.15,0.2,4.0,9.100000000000001
FL,Weeki Wachi,4178.0,,,,,,,,,,
FL,Wellington,64848.0,26.6464,-80.2706,81047.0,8.2,94.7,80.0,10.4,0.2,3.8,19.4
FL,West Kendall,4178.0,,,,,,,,,,
FL,West Palm Beach,110222.0,26.7469,-80.1316,45800.0,20.0,84.4,56.7,32.5,0.5,2.3,22.6
FL,Winter Haven,245237.0,28.0118,-81.7017,37300.0,18.4,84.7,64.7,27.7,0.3,2.0,11.0
FL,Yulee,12244.0,30.635,-81.5678,54419.0,11.5,87.6,90.5,5.6,0.4,0.9,3.1
GA,Acworth,22698.0,34.0565,-84.6709,53080.0,9.6,90.7,62.5,25.6,0.3,3.5,12.4
GA,Adel,6964.0,31.1271,-83.4232,35301.0,30.3,75.9,46.9,45.4,0.2,1.0,7.9
GA,Albany,90515.0,31.5776,-84.1762,29676.0,33.8,79.9,25.2,71.6,0.2,0.8,2.1
GA,Arlington,1387.0,31.4383,-84.7253,21429.0,37.5,71.2,21.7,76.1,0.2,0.0,1.6
GA,Athens,140169.0,33.9508,-83.3689,,,,,,,,
GA,Atlanta,5228750.0,33.7627,-84.4225,47527.0,24.6,89.0,38.4,54.0,0.2,3.1,5.2
GA,Augusta,389383.0,33.3645,-82.0708,,,,,,,,
GA,Austell,7215.0,33.8202,-84.6452,47378.0,17.2,84.2,33.0,55.4,0.2,1.5,11.9
GA,Bainbridge,11558.0,30.9046,-84.5722,25429.0,31.2,80.3,41.1,54.7,0.3,0.8,4.1
GA,Barrow County,4178.0,,,,,,,,,,
GA,Bibb County,4178.0,,,,,,,,,,
GA,Bonaire,4178.0,,,,,,,,,,
GA,Brooklet,1612.0,32.3898,-81.6668,55185.0,10.5,93.2,85.1,11.5,0.4,0.3,1.6
GA,Buford,14868.0,34.1187,-83.9915,47354.0,19.2,73.8,65.8,13.8,0.3,2.9,25.5
GA,Byron,5170.0,32.6475,-83.754,53491.0,11.5,94.6,65.4,29.0,0.2,1.8,3.9
GA,Calhoun,33029.0,34.4917,-84.9391,34814.0,24.3,68.8,73.3,6.8,0.5,1.7,25.0
GA,Carnesville,604.0,34.3723,-83.2336,30625.0,35.4,81.9,82.3,14.7,0.0,0.7,2.1
GA,Carroll County,4178.0,,,,,,,,,,
GA,Carrollton,47140.0,33.5818,-85.0837,34055.0,28.7,78.3,58.4,31.9,0.4,1.4,10.8
GA,Cartersville,55794.0,34.1632,-84.8007,47611.0,14.9,81.2,70.8,18.5,0.4,1.0,12.7
GA,Cedartown,12744.0,34.0225,-85.248,26897.0,31.0,62.5,56.5,18.8,0.5,1.0,31.0
GA,Chamblee,29428.0,33.8842,-84.3008,47379.0,28.6,73.1,45.1,7.0,2.1,8.0,58.5
GA,Chatham County,4178.0,,,,,,,,,,
GA,Clarkesville,1828.0,34.6103,-83.5284,38558.0,17.8,88.2,90.3,4.8,0.2,1.1,5.5
GA,Claxton,3500.0,32.1613,-81.9093,31667.0,30.3,77.3,48.0,42.0,0.0,1.0,9.6
GA,Clayton,3706.0,34.8775,-83.4027,28081.0,19.6,79.1,85.1,1.5,0.5,0.7,20.8
GA,Cobb County,4178.0,,,,,,,,,,
GA,Cochran,6024.0,32.3875,-83.3523,30273.0,38.1,75.1,48.2,48.5,0.1,1.6,1.8
GA,Columbus,259160.0,32.51,-84.8771,42306.0,20.5,86.4,46.3,45.5,0.4,2.2,6.4
GA,Commerce,6965.0,34.2127,-83.4729,40767.0,23.2,76.1,79.1,13.5,0.4,1.1,7.7
GA,Conyers,16015.0,33.6645,-83.9967,37293.0,27.8,82.4,29.9,56.6,0.3,1.4,16.3
GA,Covington,14044.0,33.6049,-83.8465,36678.0,25.1,77.8,46.8,47.4,0.2,0.7,5.5
GA,Cumming,6284.0,34.2064,-84.1337,43491.0,20.7,81.1,76.6,2.9,0.5,1.4,31.4
GA,Cuthbert,3558.0,31.7713,-84.794,23800.0,37.5,67.5,19.5,78.8,0.1,0.5,1.7
GA,Dahlonega,6432.0,34.5302,-83.9796,35477.0,20.3,86.8,91.3,3.1,0.4,1.2,6.0
GA,Dalton,86841.0,34.7691,-84.9712,35074.0,23.8,61.9,65.0,6.4,0.6,2.4,48.0
GA,DeKalb County,4178.0,,,,,,,,,,
GA,Decatur,23832.0,33.7711,-84.2968,81970.0,14.9,95.4,73.5,20.2,0.2,2.9,3.2
GA,Douglas,13960.0,31.5065,-82.8543,31465.0,25.8,78.0,41.6,52.0,0.2,0.9,6.3
GA,Douglasville,33675.0,33.7384,-84.7068,47707.0,19.1,88.7,36.0,55.9,0.2,1.8,7.2
GA,Dunwoody,49609.0,33.9418,-84.3122,79959.0,9.8,93.5,69.8,12.6,0.3,11.1,10.3
GA,East Point,35282.0,33.6696,-84.47,37049.0,27.9,84.7,16.1,74.6,0.4,0.8,11.5
GA,Eden,4178.0,,,,,,,,,,
GA,Elberton,5515.0,34.1064,-82.8706,25763.0,32.9,74.4,50.7,44.4,0.3,1.0,5.8
GA,Floyd County,4178.0,,,,,,,,,,
GA,Forest Park,19823.0,33.6209,-84.359,31228.0,34.1,65.5,31.7,37.7,0.5,7.9,34.3
GA,Fort Valley,9515.0,32.5522,-83.8817,20962.0,45.2,74.1,13.6,81.6,0.2,0.3,5.8
GA,Gainesville,156248.0,34.2902,-83.8303,40706.0,28.3,71.2,54.2,15.2,0.6,3.2,41.6
GA,Glennville,4509.0,31.9382,-81.9305,43408.0,24.0,75.0,63.2,31.4,0.6,1.1,5.0
GA,Glenwood,742.0,32.1805,-82.6709,16118.0,40.8,82.8,54.5,40.7,0.5,0.8,2.4
GA,Greenville,842.0,33.0322,-84.7162,25347.0,40.8,77.2,22.9,73.2,0.6,1.3,0.5
GA,Griffin,22770.0,33.2418,-84.2747,30652.0,33.1,76.8,42.8,52.2,0.3,1.1,4.0
GA,Grovetown,14109.0,33.4504,-82.2073,55060.0,15.8,85.4,57.6,30.0,0.6,1.4,13.8
GA,Habersham,4178.0,,,,,,,,,,
GA,Hall County,4178.0,,,,,,,,,,
GA,Hampton,7732.0,33.3835,-84.2854,43838.0,32.4,80.9,52.7,39.0,0.2,0.8,8.6
GA,Henry County,4178.0,,,,,,,,,,
GA,Hiram,3984.0,33.8771,-84.771,49757.0,12.0,90.1,60.8,32.0,0.3,1.0,7.5
GA,Hogansville,3105.0,33.1674,-84.9027,27056.0,29.7,76.5,53.2,43.2,0.3,0.4,2.5
GA,Jackson,5271.0,33.292,-83.9678,34846.0,22.8,72.8,55.3,40.9,0.2,0.5,2.9
GA,Jesup,12090.0,31.5991,-81.8898,32188.0,31.6,84.0,53.1,40.1,0.6,0.9,9.2
GA,Johns Creek,84350.0,34.0333,-84.2026,105417.0,4.7,95.4,63.5,9.2,0.1,23.4,5.2
GA,Kingsland,17077.0,30.8193,-81.7219,57449.0,8.9,92.3,69.3,23.1,0.5,2.3,5.5
GA,LaGrange,35918.0,33.0274,-85.0384,32582.0,30.2,80.4,44.5,48.0,0.2,2.5,4.7
GA,Lake Lanier,4178.0,,,,,,,,,,
GA,Lawrenceville,29873.0,33.9525,-83.9928,41743.0,24.4,81.3,48.0,32.0,0.6,5.7,22.3
GA,Leesburg,3765.0,31.7325,-84.1687,56964.0,19.9,84.3,70.6,25.5,0.2,1.0,2.5
GA,Lizella,4178.0,,,,,,,,,,
GA,Locust Grove,6715.0,33.3436,-84.1066,44342.0,9.0,80.3,55.7,37.4,0.3,1.7,5.3
GA,Loganville,12062.0,33.8353,-83.8957,57045.0,9.2,87.4,70.0,22.1,0.3,2.3,6.8
GA,Ludowici,2210.0,31.7096,-81.7457,37250.0,14.9,82.3,61.8,32.0,0.6,0.5,3.9
GA,Lumpkin,1159.0,32.0487,-84.798,24659.0,36.3,75.2,15.4,33.2,0.2,1.0,51.1
GA,Mableton,39745.0,33.8132,-84.5656,54919.0,17.6,84.1,45.6,39.5,0.7,2.2,18.5
GA,Macon,152663.0,32.8065,-83.6974,,,,28.6,67.9,0.2,0.8,2.5
GA,Marietta,61048.0,33.9532,-84.5422,44953.0,20.2,86.3,52.7,31.5,0.5,3.0,20.6
GA,McIntosh County,4178.0,,,,,,,,,,
GA,Molena,372.0,33.0118,-84.5002,29643.0,30.6,83.0,74.2,22.8,0.0,0.5,1.4
GA,Monroe,16153.0,33.799,-83.716,33097.0,31.7,77.8,53.3,42.4,0.1,0.8,3.4
GA,Monticello,2535.0,33.3075,-83.6863,33813.0,34.7,82.4,40.2,56.5,0.3,0.3,4.0
GA,Morrow,7473.0,33.5816,-84.3392,48230.0,16.2,73.8,22.1,45.5,0.3,25.5,9.5
GA,Moultrie,18536.0,31.1591,-83.7708,25181.0,36.0,72.3,42.6,49.5,0.3,0.7,10.2
GA,Newnan,38909.0,33.3765,-84.776,50052.0,22.6,87.5,58.9,30.2,0.3,2.6,11.0
GA,Paulding County,4178.0,,,,,,,,,,
GA,Peachtree City,35262.0,33.3943,-84.5711,85420.0,7.5,95.5,82.3,7.4,0.3,5.3,7.1
GA,Pearson,2093.0,31.297,-82.8544,23527.0,31.4,58.1,39.0,31.7,0.3,0.5,38.6
GA,Port Wentworth,8534.0,32.1942,-81.1984,61643.0,4.8,92.1,61.1,31.4,0.2,1.7,8.2
GA,Porterdale,1481.0,33.5739,-83.894,32813.0,26.7,73.5,66.5,27.5,0.4,0.1,4.2
GA,Powder Springs,15052.0,33.866,-84.6839,55528.0,18.7,88.1,41.6,49.9,0.2,1.1,9.1
GA,Rincon,13572.0,32.2945,-81.2354,62203.0,13.6,89.5,71.8,21.1,0.3,1.9,4.8
GA,Riverdale,16439.0,33.5639,-84.4103,34158.0,29.5,85.6,8.0,80.0,0.3,6.8,6.0
GA,Rockville,4178.0,,,,,,,,,,
GA,Rossville,3984.0,34.9747,-85.2898,32182.0,34.3,68.1,88.1,8.0,0.3,0.4,2.8
GA,Roswell,94786.0,34.0391,-84.3513,82150.0,9.3,93.1,74.7,11.7,0.3,4.0,16.6
GA,Salacoa,4178.0,,,,,,,,,,
GA,Sandy Springs,106739.0,33.9366,-84.3703,63917.0,12.3,94.1,65.0,20.0,0.3,5.0,14.2
GA,Savannah,280082.0,32.0281,-81.1785,36466.0,26.5,86.0,38.3,55.4,0.3,2.0,4.7
GA,Smyrna,56685.0,33.8633,-84.5168,62363.0,13.4,90.5,53.8,31.6,0.4,4.9,14.9
GA,Snellville,19738.0,33.8561,-84.0038,60347.0,13.3,94.3,61.0,30.0,0.3,3.3,7.4
GA,Spalding County,4178.0,,,,,,,,,,
GA,Stockbridge,29114.0,33.5253,-84.2294,54283.0,15.4,87.7,28.8,55.7,0.3,7.6,9.5
GA,Stone Mountain,6368.0,33.8034,-84.1724,36729.0,20.9,86.6,16.8,75.2,0.4,3.3,5.3
GA,Sylvester,6350.0,31.53,-83.8338,28414.0,28.7,74.0,38.5,59.6,0.0,0.6,1.1
GA,Talking Rock,69.0,34.5279,-84.4939,42500.0,6.7,76.7,100.0,0.0,0.0,0.0,0.0
GA,Thomas County,4178.0,,,,,,,,,,
GA,Thomasville,24271.0,30.8394,-83.9783,31679.0,27.9,82.4,43.0,53.8,0.3,0.8,2.3
GA,Tyrone,7336.0,33.4752,-84.5941,82500.0,11.8,91.6,67.5,25.3,0.2,3.4,3.6
GA,Union City,21370.0,33.5942,-84.5628,34966.0,27.1,85.9,11.1,82.3,0.2,0.9,7.0
GA,Valdosta,79294.0,30.8502,-83.2788,29336.0,35.0,82.6,43.3,51.1,0.3,1.7,4.0
GA,Walton County,4178.0,,,,,,,,,,
GA,White,723.0,34.2824,-84.7472,35005.5,13.05,87.25,72.35,21.95,0.0,0.0,5.7
GA,Whitfield County,4178.0,,,,,,,,,,
GA,Woodstock,31564.0,34.1026,-84.5085,68504.0,7.0,95.5,79.3,10.2,0.2,4.5,9.7
GA,Woodville,352.0,33.6714,-83.1063,34643.0,31.1,74.3,29.3,68.8,0.0,0.3,1.2
HI,Aiea,9332.0,21.3865,-157.9232,95428.0,5.9,93.8,15.0,0.7,0.1,57.7,6.2
HI,Hilo,45703.0,19.6886,-155.0864,53939.0,18.3,92.5,17.6,0.5,0.3,34.3,10.4
HI,Honolulu,833671.0,21.3294,-157.846,,,,,,,,
HI,Kahuku,2353.0,21.6793,-157.9473,74167.0,15.3,86.9,8.6,0.4,0.1,25.3,6.7
HI,Kalihi,4178.0,,,,,,,,,,
HI,Keaau,2627.0,19.6156,-155.0372,51429.0,13.5,85.1,12.4,0.2,0.2,52.0,8.7
HI,Maui,4178.0,,,,,,,,,,
HI,Nanakuli,11757.0,21.3892,-158.1445,63453.0,16.6,89.6,4.8,0.8,0.2,9.2,11.8
HI,North Shore,4178.0,,,,,,,,,,
HI,Pahoa,772.0,19.4961,-154.9454,31442.0,26.2,93.2,14.9,0.4,1.5,43.5,6.6
HI,Papaaloa,4178.0,,,,,,,,,,
HI,Puna,4178.0,,,,,,,,,,
HI,Wailuku,16995.0,20.8834,-156.5059,69768.0,12.7,91.2,21.0,0.6,0.3,37.2,10.3
IA,Altoona,18699.0,41.648,-93.4782,69748.0,6.1,94.9,95.1,1.1,0.1,1.1,2.9
IA,Ankeny,62416.0,41.7284,-93.6034,75465.0,7.8,97.3,94.7,1.2,0.1,2.0,2.3
IA,Boone,12640.0,42.053,-93.877,46486.0,10.9,94.3,96.7,0.8,0.3,0.4,2.0
IA,Burlington,28830.0,40.8072,-91.1247,39586.0,19.6,89.7,88.2,7.2,0.3,0.8,3.1
IA,Cedar Rapids,186160.0,41.9667,-91.6781,53581.0,12.3,93.5,88.0,5.6,0.3,2.2,3.3
IA,Clinton,30642.0,41.8434,-90.2409,41813.0,17.3,89.1,91.0,4.3,0.4,0.7,3.3
IA,Council Bluffs,62316.0,41.2369,-95.8518,45551.0,16.3,86.9,90.9,1.9,0.6,0.7,8.5
IA,Creston,7622.0,41.0597,-94.365,40782.0,15.9,93.9,96.0,1.0,0.3,0.6,2.3
IA,Dakota City,816.0,42.7229,-94.1977,42708.0,6.9,90.1,96.0,0.1,0.5,0.4,4.2
IA,Davenport,287413.0,41.5563,-90.6052,47343.0,16.6,90.6,80.7,10.8,0.4,2.2,7.3
IA,Des Moines,481222.0,41.5725,-93.6105,46290.0,20.0,87.3,76.4,10.2,0.5,4.4,12.0
IA,Fort Dodge,24223.0,42.5098,-94.1751,39315.0,18.3,89.6,89.7,5.5,0.4,0.8,5.0
IA,Fort Madison,10326.0,40.6207,-91.3509,42595.0,17.7,91.7,89.3,5.5,0.4,0.6,6.7
IA,Moorland,162.0,42.4414,-94.2954,38125.0,20.7,81.8,99.4,0.0,0.0,0.0,1.8
IA,Nashua,1598.0,42.9501,-92.5417,46121.0,6.6,94.0,98.6,0.4,0.0,0.5,0.1
IA,North English,1004.0,41.5168,-92.0777,46625.0,18.9,91.4,99.2,0.3,0.0,0.0,0.7
IA,Panora,1069.0,41.691,-94.3637,46371.0,8.5,87.9,98.5,0.2,0.0,0.4,1.4
IA,Sioux City,106279.0,42.4959,-96.3901,43888.0,15.7,83.6,80.6,2.9,2.6,2.7,16.4
IA,Urbandale,43592.0,41.639,-93.7813,78059.0,5.9,97.0,91.1,2.8,0.1,3.5,3.1
IA,Webster City,7489.0,42.4623,-93.8167,41630.5,15.55,86.95,95.4,0.2,0.1,1.7,5.95
IA,Wellman,1419.0,41.4693,-91.8354,56983.0,5.7,93.2,97.3,0.1,0.5,0.1,1.8
IA,West Burlington,2927.0,40.8215,-91.1755,38314.0,17.8,90.9,90.7,4.1,0.3,1.8,3.9
IA,West Des Moines,65608.0,41.5522,-93.7805,71200.0,8.0,96.0,88.4,3.3,0.2,4.8,5.2
ID,Blackfoot,15382.0,43.194,-112.3455,38406.0,16.9,86.0,83.1,0.3,3.5,1.1,18.4
ID,Boise,385218.0,43.6007,-116.2312,50323.0,14.3,94.3,89.0,1.5,0.7,3.2,7.1
ID,Caldwell,54660.0,43.6454,-116.6599,41048.0,20.6,79.1,77.5,0.6,1.2,0.9,35.4
ID,Coeur d'Alene,112935.0,47.704,-116.7933,43033.0,15.0,91.2,93.8,0.4,1.2,0.8,4.3
ID,Coolin,4178.0,,,,,,,,,,
ID,Council,865.0,44.7329,-116.4376,35750.0,15.4,82.7,96.5,0.1,0.7,0.2,3.0
ID,Garden City,11890.0,43.6526,-116.2743,38086.0,19.1,90.0,86.2,1.0,1.1,1.4,13.8
ID,Gooding,3606.0,42.9373,-114.7134,29135.0,20.1,73.4,84.6,0.4,0.9,0.6,22.9
ID,Hammett,4178.0,,,,,,,,,,
ID,Homedale,2740.0,43.6154,-116.9379,24474.0,47.7,66.6,63.1,0.2,1.3,1.0,43.0
ID,Idaho Falls,97548.0,43.4872,-112.0363,44580.0,15.9,90.2,89.3,0.7,1.0,1.0,12.9
ID,Jefferson County,4178.0,,,,,,,,,,
ID,Kuna,19230.0,43.4863,-116.3982,57417.0,13.2,92.9,91.2,0.6,0.8,0.7,8.6
ID,Melba,533.0,43.3725,-116.5322,41154.0,16.4,90.4,78.9,0.2,0.0,0.2,24.6
ID,Meridian,99926.0,43.6112,-116.3968,63023.0,9.2,94.7,92.0,0.8,0.5,1.8,6.8
ID,Middleton,7439.0,43.7116,-116.6153,45391.0,13.5,91.7,92.5,0.3,0.6,0.5,10.0
ID,Mountain Home,16552.0,43.1325,-115.697,42156.5,11.85,92.5,79.95,4.4,0.7,5.65,11.100000000000001
ID,Nampa,173863.0,43.5843,-116.5628,40060.0,23.6,83.9,82.9,0.7,1.2,0.9,22.9
ID,Pocatello,71020.0,42.8716,-112.4652,40269.0,21.9,92.2,90.5,1.0,1.7,1.6,7.2
ID,Preston,4477.0,42.0989,-111.88,47065.0,11.3,88.6,93.7,0.2,0.7,0.2,7.5
ID,Rexburg,29859.0,43.8222,-111.7924,25372.0,46.1,97.8,93.8,0.6,0.2,1.2,5.6
ID,Rigby,8987.0,43.6735,-111.9126,31335.0,20.6,90.0,89.5,0.2,0.9,0.5,11.8
ID,Sandpoint,12349.0,48.2822,-116.5613,31979.0,24.3,88.3,95.5,0.1,0.7,0.8,2.9
ID,Weippe,437.0,46.3787,-115.9396,27240.0,18.5,83.4,98.4,0.0,0.7,0.2,1.8
ID,Wendell,2677.0,42.7745,-114.7025,45438.0,16.6,73.6,74.2,0.2,1.4,0.3,35.7
IL,Alton,80462.0,38.9033,-90.1523,36250.0,24.4,90.3,68.5,26.6,0.2,0.5,1.9
IL,Antioch,14235.0,42.4742,-88.0721,76012.0,9.1,95.1,88.8,3.1,0.2,3.7,8.5
IL,Arcola,2840.0,39.6833,-88.3013,49303.0,14.8,82.6,85.6,0.3,0.2,0.9,29.8
IL,Aurora,200965.0,41.7637,-88.2901,63090.0,14.8,76.2,59.7,10.7,0.5,6.7,41.3
IL,Beach Park,13995.0,42.4261,-87.8584,68811.0,5.6,89.3,68.9,10.7,0.6,5.7,25.1
IL,Belleville,41649.0,38.5165,-89.99,43318.0,18.2,92.6,69.8,25.4,0.3,1.0,2.6
IL,Benton,7642.0,38.011,-88.9179,36770.0,23.4,84.1,97.3,0.4,0.3,0.3,1.2
IL,Bloomingdale,22016.0,41.9497,-88.0895,74494.0,5.6,91.1,79.4,3.7,0.2,12.7,8.7
IL,Bridgeview,16335.0,41.7402,-87.8067,50615.0,20.0,78.3,84.5,2.9,0.2,3.1,15.7
IL,Chicago,8675982.0,41.8373,-87.6862,45458.0,22.3,82.3,45.0,32.9,0.5,1.8,28.9
IL,Chicago Heights,29901.0,41.5101,-87.6347,41947.0,28.1,79.6,38.0,41.5,0.6,0.4,33.9
IL,Clinton,8200.0,40.1468,-88.9633,44490.0,16.9,88.7,95.5,0.9,0.2,0.4,3.1
IL,Dalton,4178.0,,,57917.0,10.8,94.4,97.2,0.7,0.4,0.2,0.4
IL,Danville,48518.0,40.1423,-87.6114,34756.0,28.5,84.3,62.5,30.2,0.3,1.2,6.5
IL,Deerfield,18946.0,42.1654,-87.8516,137423.0,2.9,98.4,94.0,0.5,0.1,3.6,2.8
IL,Des Plaines,58193.0,42.0344,-87.9008,65109.0,7.4,87.9,77.3,1.8,0.6,11.4,17.2
IL,Dolton,22793.0,41.6284,-87.5979,45346.0,24.8,86.8,6.2,90.9,0.1,0.3,2.7
IL,East St. Louis,26662.0,38.6156,-90.1304,19520.0,45.8,81.1,0.9,98.0,0.1,0.1,0.5
IL,Elgin,112456.0,42.0385,-88.3229,60499.0,13.6,77.9,65.9,7.4,1.4,5.4,43.6
IL,Forest Park,13951.0,41.8683,-87.8157,51927.0,9.9,92.5,55.2,32.3,0.3,6.0,9.9
IL,Gurnee,30767.0,42.3708,-87.9392,86849.0,4.8,94.4,73.3,7.8,0.3,11.6,11.7
IL,Harvey,24908.0,41.6076,-87.6521,22014.0,36.4,78.1,10.0,75.8,0.3,0.9,19.0
IL,Hurst,790.0,37.8351,-89.1442,30000.0,15.7,80.8,97.1,0.8,0.1,0.0,0.8
IL,Jerseyville,8777.0,39.118,-90.3276,50232.0,6.4,90.6,97.4,0.2,0.2,0.5,1.1
IL,Joilet,4178.0,,,,,,,,,,
IL,Joliet,148462.0,41.5189,-88.1499,60976.0,12.2,83.4,67.5,16.0,0.3,1.9,27.8
IL,Lakemoor,6048.0,42.3396,-88.2028,78186.0,6.1,91.9,87.6,2.0,0.3,3.3,13.1
IL,Lansing,27962.0,41.5648,-87.5462,48949.0,14.6,89.5,58.9,31.6,0.2,0.9,14.5
IL,Lawndale,157.0,,,,,,,,,,
IL,Lisle,22912.0,41.7922,-88.0883,75373.0,8.6,95.5,77.7,5.6,0.1,11.9,7.5
IL,Lyons,10585.0,41.8121,-87.8192,44534.0,15.2,83.1,74.9,4.2,0.8,1.4,38.3
IL,Mackinaw,3399.0,40.534,-89.3556,57188.0,10.8,94.8,97.7,0.7,0.2,0.4,1.7
IL,Macoupin County,4178.0,,,,,,,,,,
IL,Maeystown,160.0,38.2267,-90.233,50417.0,13.2,93.8,97.5,0.0,0.0,2.5,1.3
IL,Marion,17762.0,37.7171,-88.9275,42839.0,18.2,90.3,87.8,7.4,0.4,1.5,2.6
IL,Markham,12538.0,41.6,-87.6905,34433.0,25.8,83.1,12.7,81.0,0.2,0.7,6.7
IL,Metropolis,6198.0,37.1566,-88.7083,31875.0,23.0,77.2,87.3,8.3,0.6,0.4,2.1
IL,Nokomis,3183.0,39.3001,-89.2852,39506.0,14.0,89.4,98.9,0.1,0.0,0.2,0.6
IL,North Aurora,18245.0,41.8083,-88.3413,78948.0,7.3,92.1,81.3,5.2,0.2,4.9,15.0
IL,North Riverside,6564.0,41.8461,-87.8263,59821.0,11.2,93.0,81.2,6.5,0.1,2.1,23.8
IL,Peoria,262010.0,40.7521,-89.6155,46370.0,16.7,90.8,75.7,16.349999999999998,0.35,2.8,3.9000000000000004
IL,Quincy,44860.0,39.9335,-91.3798,40850.0,18.2,91.0,90.8,5.4,0.2,0.9,1.4
IL,Rantoul,13884.0,40.3031,-88.1549,38769.0,25.1,86.7,66.4,22.7,0.6,1.7,9.7
IL,Richton Park,13505.0,41.4822,-87.7352,53132.0,19.3,94.1,12.7,82.4,0.1,1.0,3.5
IL,River Forest,11132.0,41.895,-87.8194,99250.0,4.4,96.6,84.8,6.7,0.1,4.5,6.0
IL,Robbins,5486.0,41.6431,-87.708,23614.0,32.0,83.1,3.6,94.0,0.3,0.1,3.3
IL,Rock Falls,8911.0,41.7724,-89.6928,35361.0,17.9,81.8,91.5,1.5,0.4,0.3,15.1
IL,Rock Island,38110.0,41.4699,-90.5827,49282.0,11.3,93.45,67.0,23.6,0.8,0.9,12.4
IL,Rockford,285562.0,42.2598,-89.0641,38716.0,24.8,83.1,65.1,20.5,0.4,2.9,15.8
IL,Round Lake,18444.0,42.3436,-88.1058,60781.0,15.399999999999999,79.85,68.80000000000001,4.55,1.0,4.4,37.3
IL,Shawnee National Forest,4178.0,,,,,,,,,,
IL,South Elgin,22549.0,41.9906,-88.3134,89694.0,4.9,92.4,81.3,3.4,0.4,7.0,15.5
IL,Springfield,159394.0,39.771,-89.6537,49868.0,19.5,90.8,75.8,18.5,0.2,2.2,2.0
IL,Stockton,1746.0,42.3526,-90.0019,37500.0,16.1,94.1,98.5,0.2,0.1,0.4,1.9
IL,Villa Park,21836.0,41.8864,-87.9779,70176.0,9.8,90.9,81.0,4.3,0.3,5.2,17.8
IL,Washington Park,3933.0,38.6285,-90.0928,26136.0,41.8,71.7,11.2,86.1,0.2,0.1,2.7
IL,Waukegan,87729.0,42.3697,-87.8716,45845.0,21.7,70.9,46.6,19.2,1.2,4.3,53.4
IL,Zion,23952.0,42.4598,-87.8509,46313.0,19.2,81.3,48.9,31.0,0.4,2.3,27.7
IN,Avon,17568.0,39.7599,-86.391,91393.0,3.3,94.2,86.7,5.9,0.3,3.3,4.3
IN,Beech Grove,14795.0,39.7153,-86.087,36487.0,21.6,85.7,91.5,3.2,0.3,0.7,4.2
IN,Boonville,6348.0,38.0469,-87.2847,42955.0,18.9,88.0,97.7,0.5,0.2,0.1,1.2
IN,Brookville,2509.0,39.4233,-85.0114,38333.0,16.0,85.4,97.5,0.3,0.3,0.2,1.6
IN,Brownstown,3111.0,38.8791,-86.0466,38565.0,17.3,84.3,98.3,0.1,0.3,0.2,1.0
IN,Clarksville,21694.0,38.3221,-85.7673,41829.0,11.6,84.4,85.1,5.6,0.3,0.7,9.5
IN,Columbua,4178.0,,,,,,,,,,
IN,Crawfordsville,18305.0,40.0428,-86.8975,33943.0,24.7,83.2,92.1,1.7,0.4,0.9,8.2
IN,Crown Point,29625.0,41.4141,-87.3456,63754.0,6.6,92.6,88.2,6.3,0.2,1.8,8.1
IN,Dearborn County,4178.0,,,,,,,,,,
IN,Dyer,15941.0,41.4978,-87.509,79708.0,2.7,92.9,90.1,2.5,0.2,2.9,9.3
IN,Elkhart,148131.0,41.6912,-85.962,35371.0,26.7,77.6,66.1,15.4,0.6,0.9,22.5
IN,English,629.0,38.3408,-86.4592,17438.0,39.6,67.1,97.5,0.3,0.6,0.2,0.8
IN,Evansville,232285.0,37.9881,-87.5341,35785.0,21.0,87.5,82.0,12.6,0.3,1.0,2.6
IN,Fishers,91832.0,39.9589,-85.9665,95487.0,3.2,97.4,85.6,5.6,0.2,5.5,3.4
IN,Fort Wayne,328564.0,41.0885,-85.1436,43774.0,19.0,88.3,73.6,15.4,0.4,3.3,8.0
IN,French Lick,1781.0,38.5462,-86.6202,28603.0,33.7,72.9,88.8,5.8,0.3,1.2,2.1
IN,Gary,76008.0,41.5906,-87.3472,28020.0,37.1,83.9,10.7,84.8,0.3,0.2,5.1
IN,Goshen,33220.0,41.574,-85.8304,41117.0,22.6,76.0,78.2,2.6,0.5,1.2,28.1
IN,Greenwood,57375.0,39.6019,-86.1073,54176.0,13.7,91.5,90.1,1.7,0.3,3.7,5.0
IN,Hanover,3513.0,38.7137,-85.4724,40758.0,24.8,83.7,94.9,2.3,0.2,0.8,2.4
IN,Harmony,624.0,39.5335,-87.0734,41853.0,6.8,89.4,97.6,0.8,0.0,0.3,1.2
IN,Harrison County,4178.0,,,,,,,,,,
IN,Henry County,4178.0,,,,,,,,,,
IN,Huntington,17886.0,40.8816,-85.5054,38018.0,17.9,86.0,96.4,0.6,0.4,0.5,2.4
IN,Indianapolis,1564699.0,39.7771,-86.1458,41987.0,21.3,84.9,61.9,27.4,0.3,2.1,9.4
IN,Jeffersonville,47383.0,38.3375,-85.7026,50990.0,11.2,88.6,80.4,13.2,0.3,1.1,4.1
IN,Knox,3171.0,41.291,-86.621,33125.0,20.9,75.1,96.3,0.4,0.2,0.3,2.9
IN,Kokomo,79099.0,40.464,-86.1277,37623.0,21.3,86.3,83.5,10.7,0.4,1.0,3.3
IN,Lafayette,159293.0,40.399,-86.8593,40419.0,19.8,85.6,83.6,6.2,0.4,1.4,12.1
IN,Lawrence,48704.0,39.8674,-85.9904,48731.0,18.8,86.1,63.2,25.8,0.4,1.4,11.2
IN,Memphis,941.0,38.4892,-85.7679,49243.0,13.7,92.6,96.5,1.7,0.0,0.0,1.4
IN,Merrillville,34871.0,41.4728,-87.3197,52810.0,13.9,91.2,46.4,44.5,0.2,1.2,12.9
IN,Monon,1752.0,40.8642,-86.8787,35542.0,31.1,74.5,77.2,0.6,0.4,0.2,28.4
IN,Monroe County,4178.0,,,,,,,,,,
IN,Muncie,88688.0,40.1989,-85.395,31044.0,32.2,86.4,84.0,10.9,0.3,1.2,2.3
IN,New Albany,36461.0,38.3076,-85.8241,40413.0,21.6,84.6,85.8,8.7,0.2,0.7,3.7
IN,New Castle,21855.0,39.919,-85.3697,32840.0,23.8,82.8,95.1,1.9,0.2,0.4,1.7
IN,North Manchester,5761.0,41.0044,-85.775,42281.0,15.1,90.0,95.2,1.1,0.3,0.8,3.8
IN,Oakland City,2490.0,38.3378,-87.3493,35125.0,14.0,78.9,97.2,0.4,0.2,0.6,2.0
IN,Owen County,4178.0,,,,,,,,,,
IN,Portage,36672.0,41.5866,-87.1792,53730.0,16.3,88.2,83.6,7.3,0.4,0.9,16.4
IN,Randolph County,4178.0,,,,,,,,,,
IN,Salem,6391.0,38.6048,-86.0977,31980.0,22.2,82.4,97.5,0.4,0.3,0.6,1.0
IN,Shelbyville,20663.0,39.5325,-85.7762,43395.0,16.9,83.4,91.9,1.9,0.2,1.0,7.1
IN,South Bend,281100.0,41.6771,-86.2692,34523.0,28.3,83.5,60.5,26.6,0.5,1.3,13.0
IN,South Haven,5064.0,41.5438,-87.1367,51310.0,14.6,86.9,91.3,3.0,0.2,0.3,9.8
IN,Springville,4178.0,,,,,,,,,,
IN,Sullivan,4351.0,39.0973,-87.4074,27083.0,30.6,85.8,97.7,0.1,0.4,0.2,1.4
IN,Terre Haute,92722.0,39.4654,-87.3763,31817.0,27.4,84.4,83.5,10.9,0.4,1.4,3.1
IN,Vincennes,20501.0,38.6759,-87.5102,35455.0,23.9,85.4,91.9,4.7,0.3,0.7,1.9
IN,Walton,1021.0,40.6624,-86.2443,42974.0,13.8,84.1,93.2,0.3,0.1,0.3,9.5
IN,West Terre Haute,2219.0,39.4638,-87.4506,31178.0,26.6,76.0,97.3,0.5,0.6,0.0,1.3
KS,Assaria,408.0,38.6801,-97.6039,51250.0,8.2,95.9,98.3,0.0,0.2,0.0,1.9
KS,Chetopa,1050.0,37.0376,-95.0926,33229.0,26.8,84.4,85.4,2.1,6.0,0.3,3.2
KS,Colby,5436.0,39.3843,-101.0459,44679.0,11.1,92.0,95.7,0.7,0.4,0.6,4.0
KS,Finney County,4178.0,,,,,,,,,,
KS,Gardner,21583.0,38.8158,-94.93,67422.0,3.8,94.4,89.7,3.0,0.5,1.9,6.2
KS,Hays,21525.0,38.8816,-99.3219,42976.0,17.7,94.5,92.8,1.1,0.3,1.8,4.7
KS,Hesston,3371.0,38.1403,-97.4272,59646.0,11.1,99.3,92.7,1.6,0.6,1.7,4.5
KS,Hutchinson,42940.0,38.0671,-97.9081,42350.0,13.9,87.6,87.9,4.3,0.7,0.6,10.6
KS,Junction City,38178.0,39.0271,-96.8497,44203.0,14.0,91.5,60.7,22.3,0.9,3.9,13.0
KS,Kansas City,152938.0,39.1234,-94.7443,38749.0,24.9,77.8,52.2,26.8,0.8,2.7,27.8
KS,Lawrence,97341.0,38.9598,-95.2641,46406.0,21.8,95.2,82.0,4.7,3.1,4.5,5.7
KS,Leavenworth,46517.0,39.3233,-94.9244,52785.0,16.4,90.8,75.4,15.1,0.9,1.8,8.1
KS,Lehigh,169.0,38.3744,-97.3024,65625.0,7.7,96.5,96.6,0.0,0.0,0.0,4.0
KS,McPherson,13128.0,38.3714,-97.6606,53566.0,6.2,94.4,93.2,1.5,0.4,0.8,4.8
KS,Medicine Lodge,1901.0,37.2851,-98.5812,54125.0,16.4,91.6,96.3,0.7,0.3,0.4,2.4
KS,Newton,20370.0,38.0364,-97.3463,45266.0,16.8,88.1,88.4,2.2,0.9,0.8,16.3
KS,Olathe,137472.0,38.8832,-94.8198,77335.0,6.9,94.0,83.1,5.3,0.4,4.1,10.2
KS,Overland Park,191278.0,38.887,-94.687,72463.0,5.9,96.6,84.4,4.3,0.3,6.3,6.3
KS,Pratt,6462.0,37.6777,-98.7465,45494.0,14.2,88.6,93.3,1.5,0.6,0.4,6.2
KS,Rosalia,127.0,37.8158,-96.625,62917.0,12.8,81.3,98.2,0.6,0.0,0.0,2.3
KS,Salina,46782.0,38.8137,-97.6143,44710.0,17.7,88.7,86.2,3.7,0.5,2.3,10.7
KS,Topeka,148960.0,39.0346,-95.6955,42250.0,19.2,88.6,76.2,11.3,1.4,1.3,13.4
KS,Udall,718.0,37.3889,-97.1177,45852.0,17.4,87.8,94.8,0.0,2.0,0.1,3.1
KS,Wamego,4752.0,39.2054,-96.3099,51430.0,9.3,96.9,94.1,0.8,0.6,0.5,3.9
KS,Wichita,483057.0,37.6897,-97.3441,45947.0,17.3,87.5,71.9,11.5,1.2,4.8,15.3
KY,Barbourville,6178.0,36.8667,-83.8849,31708.0,29.7,78.7,92.4,5.1,0.4,0.2,1.2
KY,Bardstown,21044.0,37.8174,-85.4548,35825.0,24.4,85.6,82.3,12.4,0.2,0.8,3.7
KY,Baxter,4178.0,,,,,,,,,,
KY,Bell County,4178.0,,,,,,,,,,
KY,Berea,17929.0,37.5904,-84.2898,39906.0,26.9,86.5,90.7,4.0,0.5,1.2,2.7
KY,Bonnyman,4178.0,,,,,,,,,,
KY,Booneville,126.0,37.4719,-83.6826,12083.0,43.9,80.6,100.0,0.0,0.0,0.0,0.0
KY,Bowling Green,90448.0,36.9715,-86.4375,35604.0,28.1,84.8,75.8,13.9,0.3,4.2,6.5
KY,Bremen,192.0,37.3623,-87.2201,33125.0,15.3,89.1,98.5,0.5,0.5,0.0,3.0
KY,Brodhead,1183.0,37.4027,-84.4144,20379.0,41.1,63.0,98.0,0.1,0.2,0.2,1.0
KY,Burkesville,1481.0,36.7906,-85.3674,19403.0,33.1,70.5,87.8,8.3,0.1,0.5,1.1
KY,Carter County,4178.0,,,,,,,,,,
KY,Chavies,4178.0,,,,,,,,,,
KY,Christian County,4178.0,,,,,,,,,,
KY,Crestwood,4982.0,38.3356,-85.4839,82773.0,4.2,94.1,89.4,3.5,0.1,1.5,6.3
KY,Cumberland County,4178.0,,,,,,,,,,
KY,Daviess County,4178.0,,,,,,,,,,
KY,Dexter,433.0,36.7396,-88.2955,70303.0,11.5,81.4,97.8,0.7,0.0,0.0,0.7
KY,East Bernstadt,806.0,37.1923,-84.1209,29013.0,16.8,65.5,96.2,2.4,0.4,0.0,0.3
KY,Edmonton,1585.0,36.9842,-85.619,21649.0,29.7,73.3,96.2,1.8,0.4,0.2,1.3
KY,Elizabethtown,77317.0,37.703,-85.8769,44568.0,16.3,88.3,80.4,11.6,0.3,2.6,4.3
KY,Elkton,2111.0,36.8135,-87.161,29609.0,27.4,81.7,80.3,14.5,0.1,0.0,6.9
KY,Elsmere,8644.0,38.9949,-84.6017,46642.0,22.3,83.9,84.3,7.1,0.4,0.4,8.2
KY,Fisty,4178.0,,,,,,,,,,
KY,Flatwoods,7177.0,38.5211,-82.7194,41845.0,16.4,90.1,97.1,0.8,0.2,0.5,0.8
KY,Fulton,3917.0,36.5145,-88.8819,24943.0,25.2,79.3,64.0,30.5,0.4,1.8,0.8
KY,Georgetown,35586.0,38.2251,-84.5481,59661.0,12.5,89.8,87.5,7.0,0.3,1.2,4.3
KY,Gray,4178.0,,,,,,,,,,
KY,Gunlock,4178.0,,,,,,,,,,
KY,Hebron,6095.0,39.0626,-84.709,66864.0,5.949999999999999,91.15,94.3,1.65,0.3,0.8,2.25
KY,Hiseville,171.0,37.1008,-85.8149,29531.0,24.0,58.6,93.8,0.8,0.0,0.0,5.0
KY,Jackson County,4178.0,,,,,,,,,,
KY,Lancaster,4193.0,37.6152,-84.5817,29542.0,36.7,70.3,89.3,7.1,0.1,0.2,2.5
KY,Lawrenceburg,13439.0,38.0331,-84.9031,51303.0,11.8,87.9,93.3,3.2,0.2,0.8,1.9
KY,Leitchfield,6994.0,37.4862,-86.2857,27910.0,29.0,75.8,94.4,3.1,0.2,0.8,1.5
KY,London,37424.0,37.1209,-84.0804,31178.0,27.5,76.4,94.9,1.7,0.2,0.6,2.4
KY,Louisville,1011696.0,38.1663,-85.6485,,,,,,,,
KY,Ludlow,4507.0,39.0904,-84.5498,44246.0,25.5,86.2,97.3,1.0,0.2,0.2,1.8
KY,Martin County,4178.0,,,,,,,,,,
KY,Montgomery Creek,4178.0,,,,,,,,,,
KY,Morehead,8229.0,38.1906,-83.4466,36026.0,36.1,85.4,93.2,3.2,0.2,1.3,1.9
KY,Nicholasville,30600.0,37.8904,-84.5668,45026.0,21.6,83.1,91.5,4.3,0.2,0.5,3.5
KY,Oil Springs,4178.0,,,,,,,,,,
KY,Owensboro,73173.0,37.7573,-87.1174,37279.0,19.8,85.5,87.5,7.3,0.1,0.9,3.2
KY,Owingsville,1567.0,38.1364,-83.7603,26167.0,30.3,80.8,92.2,4.2,0.5,0.1,1.9
KY,Paducah,48629.0,37.0711,-88.6435,33608.0,23.9,85.8,71.0,23.7,0.2,1.0,2.7
KY,Paris,12662.0,38.2016,-84.2719,37109.0,22.8,82.9,81.1,11.5,0.2,0.4,6.7
KY,Phelps,762.0,37.509,-82.1605,27216.0,21.5,57.6,99.1,0.0,0.2,0.1,0.6
KY,Pine Top,4178.0,,,,,,,,,,
KY,Pippa Passes,661.0,37.3342,-82.8733,62500.0,2.0,98.9,97.2,1.3,0.0,0.6,0.8
KY,Princeton,5684.0,37.1068,-87.8854,37500.0,26.3,86.9,87.8,9.0,0.2,0.4,1.2
KY,Richmond,40111.0,37.7306,-84.2926,30621.0,31.9,86.2,86.8,8.0,0.3,1.2,2.7
KY,Russellville,6823.0,36.8394,-86.895,30743.0,27.4,74.3,78.1,15.9,0.3,0.4,4.2
KY,Scott County,4178.0,,,,,,,,,,
KY,Scottsville,4473.0,36.7493,-86.1966,30957.0,24.7,74.6,94.5,2.5,0.3,0.2,1.4
KY,Sharpsburg,342.0,38.2016,-83.9277,25000.0,27.1,63.2,82.0,14.6,0.3,0.0,1.9
KY,Shelby Gap,4178.0,,,,,,,,,,
KY,Shelbyville,23305.0,38.2066,-85.2306,45398.0,16.0,81.8,74.5,12.8,0.5,0.8,17.8
KY,Simpsonsville,4178.0,,,,,,,,,,
KY,Trosper,4178.0,,,,,,,,,,
KY,Utica,359.0,37.6028,-87.1126,49000.0,0.0,100.0,,,,,
KY,Warren County,4178.0,,,,,,,,,,
KY,Wayne County,4178.0,,,,,,,,,,
KY,White Plains,908.0,37.1708,-87.3801,40000.0,14.4,82.3,97.5,0.9,0.0,0.5,0.5
KY,Williamsburg,6009.0,36.7392,-84.1647,29795.0,17.5,81.6,93.8,2.9,0.1,0.8,1.7
KY,Wilmore,9478.0,37.8787,-84.6544,38679.0,28.8,91.2,91.0,2.3,0.2,4.8,1.7
KY,Wolfe County,4178.0,,,,,,,,,,
LA,Alexandria,82131.0,31.2923,-92.4702,34579.0,25.8,81.7,38.3,57.3,0.4,1.8,1.8
LA,Amite,4178.0,,,49919.0,16.5,77.2,43.6,54.5,0.1,0.6,1.5
LA,Bastrop,12785.0,32.7749,-91.9058,19712.0,42.3,76.4,25.7,72.5,0.1,0.4,0.8
LA,Baton Rouge,583613.0,30.4419,-91.131,39876.0,25.6,86.7,39.4,54.5,0.2,3.3,3.3
LA,Bernice,1638.0,32.8276,-92.6584,18625.0,49.9,74.3,24.6,62.8,0.1,0.1,13.3
LA,Bogalusa,11771.0,30.7812,-89.8633,23315.0,36.8,75.8,48.5,48.4,0.2,0.4,2.3
LA,Bossier City,68554.0,32.5227,-93.6667,47342.0,16.7,88.4,65.4,25.6,0.5,2.0,8.1
LA,Breaux Bridge,18881.0,30.2829,-91.9043,36288.0,23.7,74.1,50.0,47.3,0.4,0.6,1.3
LA,Caddo Parish,4178.0,,,,,,,,,,
LA,Cade,1712.0,30.0926,-91.8996,48750.0,15.5,80.6,59.5,35.2,0.2,1.9,2.7
LA,Chalmette,22907.0,29.9437,-89.966,40968.0,21.6,83.1,76.0,13.2,0.6,3.0,10.3
LA,Clinton,1531.0,30.8614,-91.015,31972.0,34.0,88.5,38.1,59.4,0.3,0.6,1.2
LA,Converse,432.0,31.7795,-93.7001,24750.0,17.5,78.3,80.0,3.4,10.0,0.0,3.0
LA,Coushatta,1808.0,32.0256,-93.3406,25707.0,34.1,63.1,29.0,69.2,0.4,0.4,1.4
LA,Covington,10416.0,30.4808,-90.1122,49141.0,18.4,81.3,77.8,19.0,0.4,0.6,3.7
LA,Crowley,14429.0,30.2175,-92.3752,25607.0,34.9,64.8,64.6,32.5,0.3,0.3,1.9
LA,DeRidder,13617.0,30.8467,-93.2931,37903.0,27.9,85.0,59.6,33.4,0.9,1.5,4.5
LA,Denham Springs,9834.0,30.4743,-90.9594,49498.0,17.8,83.5,81.3,14.9,0.4,0.5,4.1
LA,East Baton Rouge,4178.0,,,,,,,,,,
LA,Ethel,4178.0,,,,,,,,,,
LA,Evangeline Parish,4178.0,,,,,,,,,,
LA,Franklin,13292.0,29.7851,-91.5098,29964.0,29.5,78.9,40.1,56.2,1.1,0.7,1.9
LA,Gibson,4178.0,,,,,,,,,,
LA,Goodbee,4178.0,,,,,,,,,,
LA,Gretna,17935.0,29.91,-90.0515,36880.0,22.7,77.1,55.4,34.3,0.5,2.7,13.8
LA,Hammond,69180.0,30.5061,-90.4563,31694.0,31.5,81.1,48.6,47.5,0.2,1.5,3.3
LA,Harvey,20311.0,29.8876,-90.0666,39014.0,20.7,77.2,43.5,41.1,0.4,6.8,13.4
LA,Haughton,3432.0,32.5272,-93.5042,48064.0,10.7,78.1,78.2,18.2,0.6,0.5,2.5
LA,Homer,2693.0,32.793,-93.0582,27050.0,40.0,79.0,33.0,64.3,0.1,0.8,1.4
LA,Houma,142969.0,29.5799,-90.7058,47052.0,20.9,79.9,66.0,24.4,4.0,1.0,4.8
LA,Iota,1464.0,30.326,-92.4956,36500.0,12.5,78.9,91.5,6.4,0.4,0.0,0.8
LA,Jefferson Parish,4178.0,,,,,,,,,,
LA,Keithville,4178.0,,,,,,,,,,
LA,Kenner,67451.0,30.0109,-90.2549,47527.0,15.5,84.7,61.6,24.0,0.4,3.7,22.4
LA,Lacombe,8519.0,30.3141,-89.931,43248.0,19.3,80.1,69.1,23.9,0.9,0.6,4.2
LA,Lafayette,265746.0,30.2084,-92.0323,46517.0,19.1,86.0,63.8,31.1,0.3,1.8,3.8
LA,Lake Charles,153633.0,30.2022,-93.2141,36751.0,24.1,84.7,47.0,47.7,0.4,1.7,2.9
LA,Lakes Charles,4178.0,,,,,,,,,,
LA,Lincoln Parish,4178.0,,,,,,,,,,
LA,Livingston Parish,4178.0,,,,,,,,,,
LA,Mamou,3818.0,30.6349,-92.4179,19297.0,41.1,60.6,54.7,43.0,0.2,0.2,1.4
LA,Mandeville,94760.0,30.375,-90.0906,71689.0,6.0,92.0,90.6,4.4,0.3,1.9,5.3
LA,Marksville,7225.0,31.1247,-92.0652,25850.0,29.8,64.7,50.5,42.9,1.9,0.8,1.9
LA,Metairie,144822.0,29.9976,-90.1781,52421.0,13.8,89.0,80.0,10.4,0.3,3.3,12.6
LA,Monroe,115462.0,32.5183,-92.0775,28268.0,35.4,82.0,33.4,63.9,0.2,1.1,1.1
LA,New Iberia,29620.0,30.0049,-91.8202,39061.0,23.3,76.0,52.5,41.5,0.2,2.7,3.1
LA,New Llano,2370.0,31.097,-93.2767,42898.0,14.6,84.8,43.3,38.7,1.0,5.0,10.6
LA,New Orleans,1029123.0,30.0687,-89.9288,36792.0,27.0,85.2,33.0,60.2,0.3,2.9,5.2
LA,Ouachita Parish,4178.0,,,,,,,,,,
LA,Pineville,14429.0,31.3414,-92.4096,38049.0,21.3,83.8,64.6,30.8,0.5,1.5,2.6
LA,Plaquemine,6715.0,30.2834,-91.2429,41447.0,22.6,80.3,46.7,51.0,0.2,0.4,2.4
LA,Port Allen,5034.0,30.4456,-91.2098,37269.0,25.7,83.6,39.9,58.0,0.1,0.1,1.5
LA,Port Barre,2659.0,30.5565,-91.9565,22273.0,38.0,72.6,71.6,25.7,0.1,0.2,1.6
LA,Pride,4178.0,,,,,,,,,,
LA,Raceland,10322.0,29.7282,-90.6362,41987.0,18.4,74.2,67.0,28.5,1.1,0.3,2.8
LA,Ragley,4178.0,,,,,,,,,,
LA,Shreveport,287432.0,32.4659,-93.7959,38583.0,23.6,85.5,41.2,54.7,0.4,1.3,2.5
LA,Slidell,93882.0,30.2881,-89.7826,51958.0,16.3,87.5,76.0,17.0,0.5,1.6,6.3
LA,St. Helena Parish,4178.0,,,,,,,,,,
LA,St. Tammany Parish,4178.0,,,,,,,,,,
LA,Terrytown,24216.0,29.9016,-90.028,43363.0,24.5,83.6,44.8,39.8,0.4,4.1,17.4
LA,Treme,4178.0,,,,,,,,,,
LA,West Monroe,12657.0,32.512,-92.1513,31975.0,28.5,85.6,61.9,33.6,0.4,0.8,3.5
LA,West Ouachita,4178.0,,,,,,,,,,
LA,Winn Parish,4178.0,,,,,,,,,,
LA,Winnsboro,5078.0,32.1651,-91.721,19409.0,52.3,65.0,31.3,66.6,0.1,0.4,1.2
MA,Auburn,16766.0,,,,,,,,,,
MA,Beverly,41816.0,42.5681,-70.8627,72837.0,8.0,94.1,93.3,1.6,0.2,1.7,3.5
MA,Boston,4637537.0,42.3188,-71.0846,55777.0,21.5,85.2,53.9,24.4,0.4,8.9,17.5
MA,Braintree,4178.0,,,84776.0,5.9,93.9,86.7,2.7,0.2,7.6,2.5
MA,Brockton,95672.0,42.0821,-71.0242,47557.0,18.6,81.0,46.7,31.2,0.4,2.3,10.0
MA,Brookline,59121.0,,,95518.0,12.1,96.6,76.7,3.4,0.1,15.6,5.0
MA,Everett,46324.0,42.4064,-71.0545,50762.0,14.9,79.8,62.8,14.3,0.4,4.8,21.1
MA,Fall River,89420.0,41.7137,-71.1014,35213.0,23.2,71.4,87.0,3.9,0.3,2.6,7.4
MA,Lowell,111346.0,42.6389,-71.3217,48002.0,19.8,78.9,60.3,6.8,0.3,20.2,17.3
MA,Lynn,94063.0,42.4779,-70.9663,47429.0,20.2,79.9,57.6,12.8,0.7,7.0,32.1
MA,Milford,29101.0,,,65163.0,12.1,91.1,86.3,2.3,0.3,2.3,9.0
MA,Newbury,7148.0,,,,,,,,,,
MA,Oxford,14009.0,,,64914.0,5.8,92.6,96.6,0.6,0.2,0.8,2.3
MA,Pittsfield,56291.0,42.4517,-73.2605,43916.0,17.2,89.6,88.3,5.3,0.2,1.2,5.0
MA,Reading,25400.0,,,107654.0,2.8,96.8,93.5,0.8,0.1,4.2,1.5
MA,Revere,53993.0,42.4191,-71.0035,50886.0,15.6,82.2,74.1,4.9,0.4,5.6,24.4
MA,Roslindale,4178.0,,,,,,,,,,
MA,Spencer,11935.0,,,45750.0,16.9,80.6,95.1,0.8,0.3,0.8,4.3
MA,Taunton,57139.0,41.9036,-71.0943,53058.0,12.4,82.1,87.2,5.0,0.3,1.0,5.5
MA,Tewksbury,31178.0,,,,,,,,,,
MA,Webster,16949.0,,,43116.0,19.2,79.6,89.1,3.8,0.4,1.0,8.9
MA,West Springfield,4178.0,,,54585.0,10.9,88.5,86.3,3.3,0.2,4.4,8.7
MA,Westborough,19144.0,,,84349.0,3.4,95.0,86.3,1.3,0.1,6.7,6.2
MA,Weymouth,4178.0,,,69123.0,6.9,93.4,89.7,3.1,0.2,3.2,2.6
MD,Abingdon,4178.0,,,,,,,,,,
MD,Baltimore,2170504.0,39.3051,-76.6144,42241.0,23.7,82.5,29.6,63.7,0.4,2.3,4.2
MD,Baltimore Highlands CDP,1000.0,39.3051,-76.6144,51583.0,20.6,72.4,63.8,21.7,0.4,2.8,14.4
MD,Bel Air,10037.0,39.5348,-76.346,77188.0,4.95,95.3,91.0,4.0,0.15000000000000002,1.9500000000000002,2.9
MD,Capitol Heights,4553.0,38.8766,-76.9074,75788.0,13.0,79.7,3.3,91.3,0.3,0.1,5.4
MD,Chestertown,6896.0,39.2195,-76.071,43977.0,24.9,84.5,74.2,20.4,0.3,1.8,4.2
MD,Clinton,39230.0,38.7499,-76.9063,103678.0,4.0,92.8,11.3,80.7,0.3,2.5,5.2
MD,Columbia,103170.0,39.2004,-76.859,100849.0,7.0,95.7,55.5,25.3,0.4,11.4,7.9
MD,Davidsonville,4178.0,,,,,,,,,,
MD,District Heights,6022.0,38.8588,-76.8885,65732.0,8.8,89.5,6.0,90.1,0.2,0.6,3.7
MD,Dundalk,62516.0,39.2703,-76.4942,49435.0,13.7,79.7,81.3,11.0,0.9,1.7,5.0
MD,Elkridge,19367.0,39.1941,-76.7427,97118.0,5.6,91.9,61.6,19.8,0.3,12.2,6.3
MD,Elkton,15652.0,39.6067,-75.8209,53851.0,17.5,85.0,76.0,15.1,0.3,2.6,5.9
MD,Essex,39494.0,39.3024,-76.4457,48434.0,13.8,84.1,66.4,26.4,0.5,1.8,5.1
MD,Fort Meade,10088.0,39.1058,-76.7438,64518.0,6.3,96.3,62.0,23.9,0.7,2.9,12.6
MD,Fort Washington,24144.0,38.7339,-77.0069,104132.0,5.2,91.8,13.4,70.6,0.2,9.2,6.6
MD,Frederick,154972.0,39.4336,-77.4157,64700.0,11.4,89.2,63.9,18.6,0.5,5.8,14.4
MD,Glen Burnie,68768.0,39.1559,-76.6072,61966.0,8.8,86.1,66.4,22.0,0.4,4.0,7.9
MD,Greenbelt,23489.0,38.9953,-76.8885,63585.0,11.3,89.0,30.1,47.8,0.3,9.7,14.3
MD,Havre de Grace,13576.0,39.5481,-76.1146,67813.0,11.1,91.5,75.7,16.8,0.3,2.4,4.7
MD,Hyattsville,18333.0,38.9612,-76.9548,64786.0,11.1,76.4,33.2,35.6,0.8,4.4,34.0
MD,La Plata,9365.0,38.5352,-76.9701,95729.0,11.4,91.7,66.3,26.7,0.5,2.7,3.2
MD,Landover,22852.0,38.9241,-76.8875,56428.5,13.649999999999999,77.19999999999999,14.0,62.6,0.8999999999999999,1.0499999999999998,27.7
MD,Lexington Park,11937.0,38.2543,-76.4415,65613.0,17.1,88.6,55.5,31.6,0.6,4.4,7.4
MD,Linthicum,10852.0,39.2088,-76.6625,84572.0,5.9,89.4,89.0,3.7,0.3,4.2,2.7
MD,Little Orleans,25.0,39.6308,-78.3921,,35.7,100.0,100.0,0.0,0.0,0.0,0.0
MD,Middle River,25654.0,39.3345,-76.4318,53082.0,14.3,84.3,67.5,22.6,0.7,3.4,6.2
MD,Montgomery Village,33565.0,39.1783,-77.1957,74978.0,6.4,89.4,49.9,23.8,0.4,10.8,24.4
MD,Mt Airy,4178.0,,,,,,,,,,
MD,North East,3635.0,39.6077,-75.9414,59614.0,6.5,82.2,87.2,7.6,0.4,1.5,3.3
MD,Overlea,12014.0,39.3642,-76.5176,61442.0,7.3,90.9,74.7,19.0,0.2,3.2,3.1
MD,Owings Mills,34231.0,39.4115,-76.7913,69891.0,8.5,91.8,34.3,51.0,0.3,7.8,7.0
MD,Oxon Hill,18077.0,38.7887,-76.9733,70121.0,9.7,87.5,8.4,75.5,0.4,5.7,10.9
MD,Parkville,31762.0,39.3832,-76.5519,56321.0,12.7,88.4,61.9,31.2,0.2,2.8,3.8
MD,Phoenix,4178.0,,,,,,,,,,
MD,Pikesville,33426.0,39.3893,-76.702,78891.0,6.8,96.1,77.0,14.5,0.1,6.0,2.7
MD,Potomac,45780.0,39.0141,-77.1943,52645.0,11.3,91.6,75.8,4.6,0.1,0.3,1.4
MD,Randallstown,35438.0,39.3723,-76.8024,73397.0,10.0,93.5,13.5,80.7,0.2,2.0,2.7
MD,Reisterstown,26903.0,39.4552,-76.8144,61593.0,12.8,90.0,57.2,29.3,0.4,6.3,8.9
MD,Rising Sun,2800.0,39.7003,-76.0586,55893.0,14.7,87.4,95.8,0.7,0.7,0.6,2.6
MD,Rockville,68401.0,39.0834,-77.1553,100239.0,6.8,93.4,60.4,9.6,0.3,20.6,14.3
MD,Rosedale,19151.0,39.3266,-76.5084,55042.0,12.3,85.3,59.0,33.0,0.5,3.0,5.0
MD,Salisbury,106034.0,38.3755,-75.5867,37705.0,27.4,85.6,55.7,34.4,0.3,3.2,7.0
MD,Silver Spring,79483.0,39.0028,-77.0207,72887.0,11.7,84.1,45.7,27.8,0.6,7.9,26.3
MD,Sparks,4178.0,,,,,,,,,,
MD,Temple Hills,8278.0,38.8106,-76.9495,64399.0,15.2,91.8,5.6,86.9,0.4,1.2,6.2
MD,Thurmont,7383.0,39.621,-77.4076,68043.0,8.1,91.5,95.8,1.0,0.4,0.6,2.4
MD,Westminster,18593.0,39.5797,-77.0064,55122.0,13.4,88.7,86.0,7.0,0.3,2.2,6.0
MD,Woodlawn,39296.0,39.3054,-76.7489,65745.5,6.8,77.15,22.05,55.3,0.8,5.3500000000000005,23.799999999999997
ME,Arundel,4394.0,,,,,,,,,,
ME,Auburn,23033.0,44.085,-70.2492,46760.0,16.1,88.9,93.7,2.5,0.4,0.9,1.5
ME,Bangor,59107.0,44.8322,-68.7906,35674.0,26.2,91.4,93.1,1.7,1.2,1.7,1.5
ME,Belgrade,3149.0,,,,,,,,,,
ME,Gorham,17978.0,,,60625.0,7.0,95.8,96.1,0.7,0.4,1.0,1.0
ME,Hiram,1642.0,,,,,,,,,,
ME,Limerick,3022.0,,,,,,,,,,
ME,Madison,4620.0,,,35718.0,22.7,86.7,97.1,0.4,0.5,0.4,1.3
ME,Minot,2586.0,,,,,,,,,,
ME,Naples,3969.0,,,45114.0,4.4,100.0,97.7,0.7,0.2,0.2,0.0
ME,Oakfield,678.0,,,,,,,,,,
ME,Old Town,7497.0,44.9491,-68.7249,31628.0,26.7,89.8,93.1,0.9,1.6,1.8,1.3
ME,Orrington,3688.0,,,,,,,,,,
ME,Portland,206023.0,43.6773,-70.2715,46280.0,19.7,92.5,85.0,7.1,0.5,3.5,3.0
ME,Presque Isle,5696.0,46.6868,-67.9874,36538.0,21.0,89.2,94.5,0.6,2.4,0.9,1.3
ME,Smyrna,418.0,,,,,,,,,,
ME,Vassalboro,4368.0,,,,,,,,,,
ME,Waldoboro,5069.0,,,17614.0,42.3,98.4,96.5,0.1,0.4,0.6,1.9
ME,Wales,1617.0,,,,,,,,,,
MI,Algoma Township,4178.0,,,,,,,,,,
MI,Bagley Township,4178.0,,,,,,,,,,
MI,Battle Creek,76803.0,42.2986,-85.2296,36882.0,21.7,89.3,71.7,18.2,0.7,2.4,6.7
MI,Bay City,67059.0,43.5903,-83.8886,34743.0,22.2,86.7,89.7,3.5,0.6,0.5,8.5
MI,Beaverton,1050.0,43.8811,-84.4887,26538.0,31.4,89.5,97.7,0.4,0.7,0.0,0.7
MI,Belleville,3869.0,42.2021,-83.4838,45452.0,16.3,84.5,80.6,14.1,0.4,0.8,3.8
MI,Benton Harbor,59939.0,42.1159,-86.4488,18085.0,50.3,70.5,7.0,89.2,0.3,0.1,2.2
MI,Benton Township,4178.0,,,,,,,,,,
MI,Blackman Township,4178.0,,,,,,,,,,
MI,Bloomfield Township,4178.0,,,,,,,,,,
MI,Brighton Township,4178.0,,,,,,,,,,
MI,Cato Township,4178.0,,,,,,,,,,
MI,Columbia Township,4178.0,,,,,,,,,,
MI,Dearborn,94491.0,42.3127,-83.2129,45997.5,24.5,83.4,87.6,5.95,0.30000000000000004,1.7,4.05
MI,Dearborn Heights,55758.0,42.3164,-83.2769,44620.0,20.1,85.8,86.1,7.9,0.4,1.7,4.7
MI,Delta Township,4178.0,,,,,,,,,,
MI,Detroit,3522206.0,42.3834,-83.1024,25764.0,40.3,78.3,10.6,82.7,0.4,1.1,6.8
MI,Detroit Beach CDP,1000.0,42.3834,-83.1024,51719.0,9.6,91.1,95.9,0.4,0.2,0.0,2.9
MI,Eaton County,4178.0,,,,,,,,,,
MI,Eaton Rapids Township,4178.0,,,,,,,,,,
MI,Flint,335354.0,43.0235,-83.6922,24862.0,41.2,82.9,37.4,56.6,0.5,0.5,3.9
MI,Gaines Township,4178.0,,,,,,,,,,
MI,Genesee Township,4178.0,,,,,,,,,,
MI,Grand Rapids,602694.0,42.9615,-85.6557,40355.0,26.0,85.1,64.6,20.9,0.7,1.9,15.6
MI,Hessel,4178.0,,,,,,,,,,
MI,Holland Township,4178.0,,,,,,,,,,
MI,Inkster,24453.0,42.2935,-83.3148,30210.0,34.9,83.6,20.5,73.2,0.3,1.6,2.6
MI,Ishpeming Township,4178.0,,,,,,,,,,
MI,Jackson,87819.0,42.2431,-84.4037,28087.0,36.0,84.3,71.4,20.4,0.4,0.7,5.3
MI,Kalamazoo,214083.0,42.2749,-85.5882,33009.0,33.9,90.2,68.1,22.2,0.5,1.7,6.4
MI,Kentwood,51747.0,42.8852,-85.5925,49612.0,14.6,89.6,70.1,15.4,0.4,6.6,8.5
MI,Lansing,320928.0,42.7142,-84.5601,35563.0,29.6,87.6,61.2,23.7,0.8,3.7,12.5
MI,Lincoln Township,4178.0,,,,,,,,,,
MI,Manistee,9422.0,44.244,-86.3242,36327.0,17.05,87.45,94.85,0.45,2.0,0.2,2.25
MI,Marine City,4102.0,42.7138,-82.5012,40240.0,14.5,91.7,96.8,0.3,0.7,0.2,1.7
MI,Marion,858.0,44.1006,-85.1438,24821.0,43.7,87.2,98.3,0.1,0.5,0.0,1.3
MI,Midland,59138.0,43.6239,-84.2316,53722.0,15.7,94.9,92.0,2.0,0.3,3.3,2.4
MI,Oak Park,29654.0,42.4649,-83.1824,47463.0,16.2,91.7,37.4,57.4,0.2,1.4,1.4
MI,Pavilion Township,4178.0,,,,,,,,,,
MI,Pennfield Township,4178.0,,,,,,,,,,
MI,Plymouth Township,4178.0,,,,,,,,,,
MI,Portage,48816.0,42.2,-85.5906,54040.0,11.0,95.8,86.9,4.9,0.4,3.8,3.1
MI,Redford Township,4178.0,,,,,,,,,,
MI,Romulus,23457.0,42.2237,-83.366,42681.0,20.5,86.8,50.5,43.0,0.5,1.1,3.0
MI,Roxand Township,4178.0,,,,,,,,,,
MI,Royal Oak,59112.0,42.5084,-83.1539,65786.0,7.3,96.1,90.7,4.3,0.3,2.4,2.3
MI,Saginaw,119336.0,43.4199,-83.9501,27990.0,35.9,78.4,43.5,46.1,0.5,0.3,14.3
MI,Sebewaing,1652.0,43.7321,-83.4511,45350.0,8.6,88.8,97.5,0.0,0.2,0.2,4.3
MI,Shelby Township,4178.0,,,,,,,,,,
MI,Southfield,73208.0,42.4765,-83.2605,49244.0,15.2,92.6,24.9,70.3,0.2,1.7,1.3
MI,St. Clair Shores,59635.0,42.4921,-82.8957,53093.0,9.8,91.9,92.7,3.9,0.3,1.0,1.7
MI,St. Joseph,8363.0,42.0967,-86.485,55012.0,8.7,95.6,88.1,5.3,0.3,3.4,2.8
MI,St. Joseph County,4178.0,,,,,,,,,,
MI,Trenton,18255.0,42.1395,-83.193,55218.0,8.0,91.7,95.5,1.3,0.5,0.7,3.2
MI,Troy,83813.0,42.5818,-83.1457,85027.0,6.9,93.9,74.1,4.0,0.2,19.1,2.1
MI,Union Township,4178.0,,,,,,,,,,
MI,Walloon Lake,312.0,45.2719,-84.9413,62212.0,2.1,93.8,96.2,0.0,0.0,1.7,1.4
MI,Warren,135022.0,42.4934,-83.027,43523.0,19.7,84.1,78.4,13.5,0.4,4.6,2.1
MI,Waterford Township,4178.0,,,,,,,,,,
MI,West Olive,4178.0,,,,,,,,,,
MI,Wyoming,75938.0,42.8909,-85.7066,46849.0,14.9,84.0,75.8,7.2,0.6,2.8,19.4
MN,Aitkin,2016.0,46.5303,-93.7051,28281.0,24.6,85.5,95.5,0.8,1.5,0.3,1.2
